<?xml version="1.0" encoding="UTF-8"?><airports><airport><iata_code>AAA</iata_code>
<icao_code>NTGA</icao_code>
<name_rus>Анаа</name_rus>
<name_eng>Anaa</name_eng>
<city_rus>Анаа</city_rus>
<city_eng>Anaa</city_eng>
<country_rus>Французская Полинезия</country_rus>
<country_eng>French Polynesia</country_eng>
<iso_code>PF</iso_code>

<latitude>-17.355000</latitude>
<longitude>-145.508333</longitude>
</airport><airport><iata_code>AAB</iata_code>
<icao_code>YARY</icao_code>
<name_rus></name_rus>
<name_eng>Arrabury</name_eng>
<city_rus></city_rus>
<city_eng>Arrabury</city_eng>
<country_rus>Австралия</country_rus>
<country_eng>Australia</country_eng>

<iso_code>AU</iso_code>
<latitude>-26.690556</latitude>
<longitude>141.047500</longitude>
</airport><airport><iata_code>AAC</iata_code>
<icao_code>HEAR</icao_code>
<name_rus></name_rus>
<name_eng>Al Arish International Airport</name_eng>
<city_rus>Аль-Ариш</city_rus>
<city_eng>Al Arish</city_eng>

<country_rus>Египет</country_rus>
<country_eng>Egypt</country_eng>
<iso_code>EG</iso_code>
<latitude>31.073333</latitude>
<longitude>33.835833</longitude>
</airport><airport><iata_code>AAD</iata_code>
<icao_code>TVSV</icao_code>
<name_rus></name_rus>
<name_eng>Ad-Dabbah</name_eng>

<city_rus></city_rus>
<city_eng>Ad-Dabbah</city_eng>
<country_rus>Судан</country_rus>
<country_eng>Sudan</country_eng>
<iso_code>SD</iso_code>
<latitude>17.592777777778</latitude>
<longitude>33.959166666667</longitude>
</airport><airport><iata_code>AAE</iata_code>
<icao_code>DABB</icao_code>

<name_rus></name_rus>
<name_eng>Les Salines</name_eng>
<city_rus></city_rus>
<city_eng>Annaba</city_eng>
<country_rus>Алжир</country_rus>
<country_eng>Algeria</country_eng>
<iso_code>DZ</iso_code>
<latitude>36.822222</latitude>
<longitude>7.809444</longitude>
</airport><airport><iata_code>AAF</iata_code>

<icao_code>KAAF</icao_code>
<name_rus></name_rus>
<name_eng>Municipal</name_eng>
<city_rus></city_rus>
<city_eng>Apalachicola</city_eng>
<country_rus>США</country_rus>
<country_eng>United States</country_eng>
<iso_code>US</iso_code>
<latitude>29.727607</latitude>
<longitude>-85.027442</longitude>

</airport><airport><iata_code>AAG</iata_code>
<icao_code>SSYA</icao_code>
<name_rus></name_rus>
<name_eng>Arapoti</name_eng>
<city_rus></city_rus>
<city_eng>Arapoti</city_eng>
<country_rus>Бразилия</country_rus>
<country_eng>Brazil</country_eng>
<iso_code>BR</iso_code>
<latitude>-24.103875</latitude>

<longitude>-49.789078</longitude>
</airport><airport><iata_code>AAH</iata_code>
<icao_code>EDKA</icao_code>
<name_rus></name_rus>
<name_eng>Aachen/Merzbruck</name_eng>
<city_rus>Аахен</city_rus>
<city_eng>Aachen</city_eng>
<country_rus>Германия</country_rus>
<country_eng>Germany</country_eng>

<iso_code>DE</iso_code>
<latitude>50.823056</latitude>
<longitude>6.186111</longitude>
</airport><airport><iata_code>AAI</iata_code>
<icao_code>SWRA</icao_code>
<name_rus></name_rus>
<name_eng>Arraias</name_eng>
<city_rus></city_rus>
<city_eng>Arraias</city_eng>
<country_rus>Бразилия</country_rus>

<country_eng>Brazil</country_eng>
<iso_code>BR</iso_code>
<latitude>-13.025</latitude>
<longitude>-46.884</longitude>
</airport><airport><iata_code>AAJ</iata_code>
<icao_code>SMCA</icao_code>
<name_rus></name_rus>
<name_eng>Cayana Airstrip</name_eng>
<city_rus>Аварадам</city_rus>

<city_eng>Awaradam</city_eng>
<country_rus>Суринам</country_rus>
<country_eng>Suriname</country_eng>
<iso_code>SR</iso_code>
<latitude>3.898611</latitude>
<longitude>-55.577778</longitude>
</airport><airport><iata_code>AAK</iata_code>
<icao_code>NGUK</icao_code>
<name_rus>Аранука</name_rus>

<name_eng>Aranuka</name_eng>
<city_rus>Аранука</city_rus>
<city_eng>Aranuka</city_eng>
<country_rus>Кирибати</country_rus>
<country_eng>Kiribati</country_eng>
<iso_code>KI</iso_code>
<latitude>0.185278</latitude>
<longitude>173.636667</longitude>
</airport><airport><iata_code>AAL</iata_code>

<icao_code>EKYT</icao_code>
<name_rus>Аальборг</name_rus>
<name_eng>Aalborg</name_eng>
<city_rus>Аальбург</city_rus>
<city_eng>Aalborg</city_eng>
<country_rus>Дания</country_rus>
<country_eng>Denmark</country_eng>
<iso_code>DK</iso_code>
<latitude>57.092789</latitude>

<longitude>9.849164</longitude>
</airport><airport><iata_code>AAM</iata_code>
<icao_code>FAMD</icao_code>
<name_rus>Мала-Мала</name_rus>
<name_eng>Mala Mala</name_eng>
<city_rus>Мала-Мала</city_rus>
<city_eng>Mala Mala</city_eng>
<country_rus>ЮАР</country_rus>
<country_eng>South Africa</country_eng>

<iso_code>ZA</iso_code>
<latitude>-24.818111</latitude>
<longitude>31.544584</longitude>
</airport><airport><iata_code>AAN</iata_code>
<icao_code>OMAL</icao_code>
<name_rus>Эль-Аин</name_rus>
<name_eng>Al Ain</name_eng>
<city_rus>Аль-Айн</city_rus>
<city_eng>Al Ain</city_eng>

<country_rus>ОАЭ</country_rus>
<country_eng>United Arab Emirates</country_eng>
<iso_code>AE</iso_code>
<latitude>24.261667</latitude>
<longitude>55.609167</longitude>
</airport><airport><iata_code>AAO</iata_code>
<icao_code>SVAN</icao_code>
<name_rus>Анако</name_rus>
<name_eng>Anaco</name_eng>

<city_rus>Анако</city_rus>
<city_eng>Anaco</city_eng>
<country_rus>Венесуэла</country_rus>
<country_eng>Venezuela</country_eng>
<iso_code>VE</iso_code>
<latitude>9.430225</latitude>
<longitude>-64.470725</longitude>
</airport><airport><iata_code>AAP</iata_code>
<icao_code>BGAG</icao_code>

<name_rus></name_rus>
<name_eng>Andrau Airpark</name_eng>
<city_rus></city_rus>
<city_eng>Houston, TX</city_eng>
<country_rus>США</country_rus>
<country_eng>United States</country_eng>
<iso_code>US</iso_code>
<latitude>72.886944</latitude>
<longitude>-55.596111</longitude>
</airport><airport><iata_code>AAQ</iata_code>

<icao_code>URKA</icao_code>
<name_rus>Витязево</name_rus>
<name_eng>Vityazevo</name_eng>
<city_rus>Анапа</city_rus>
<city_eng>Anapa</city_eng>
<country_rus>Россия</country_rus>
<country_eng>Russian Federation</country_eng>
<iso_code>RU</iso_code>
<latitude>45.002097</latitude>

<longitude>37.347272</longitude>
</airport><airport><iata_code>AAR</iata_code>
<icao_code>EKAH</icao_code>
<name_rus></name_rus>
<name_eng>Aarhus Airport</name_eng>
<city_rus>Аарус</city_rus>
<city_eng>Aarhus</city_eng>
<country_rus>Дания</country_rus>
<country_eng>Denmark</country_eng>

<iso_code>DK</iso_code>
<latitude>56.300017</latitude>
<longitude>10.619008</longitude>
</airport><airport><iata_code>AAS</iata_code>
<icao_code></icao_code>
<name_rus></name_rus>
<name_eng>Apalapsili</name_eng>
<city_rus></city_rus>
<city_eng>Apalapsili</city_eng>
<country_rus>Индонезия</country_rus>

<country_eng>Indonesia</country_eng>
<iso_code>ID</iso_code>
<latitude>-3.883</latitude>
<longitude>139.283</longitude>
</airport><airport><iata_code>AAT</iata_code>
<icao_code>ZWAT</icao_code>
<name_rus>Алтай</name_rus>
<name_eng>Altay</name_eng>
<city_rus>Алтай</city_rus>

<city_eng>Altay</city_eng>
<country_rus>Китай</country_rus>
<country_eng>China</country_eng>
<iso_code>CN</iso_code>
<latitude>47.749</latitude>
<longitude>88.089</longitude>
</airport><airport><iata_code>AAU</iata_code>
<icao_code>NSAU</icao_code>
<name_rus>Асау</name_rus>

<name_eng>Asau</name_eng>
<city_rus>Асау</city_rus>
<city_eng>Asau</city_eng>
<country_rus>Самоа</country_rus>
<country_eng>Samoa</country_eng>
<iso_code>WS</iso_code>
<latitude>-13.505778</latitude>
<longitude>-172.627972</longitude>
</airport><airport><iata_code>AAV</iata_code>

<icao_code>RPMA</icao_code>
<name_rus></name_rus>
<name_eng>Allah Valley</name_eng>
<city_rus></city_rus>
<city_eng>Surallah</city_eng>
<country_rus>Филиппины</country_rus>
<country_eng>Philippines</country_eng>
<iso_code>PH</iso_code>
<latitude>6.366817</latitude>
<longitude>124.751294</longitude>

</airport><airport><iata_code>AAW</iata_code>
<icao_code>OPAB</icao_code>
<name_rus></name_rus>
<name_eng>Abbottabad</name_eng>
<city_rus></city_rus>
<city_eng>Abbottabad</city_eng>
<country_rus>Пакистан</country_rus>
<country_eng>Pakistan</country_eng>
<iso_code>PK</iso_code>
<latitude>34.150</latitude>

<longitude>73.217</longitude>
</airport><airport><iata_code>AAX</iata_code>
<icao_code>SBAX</icao_code>
<name_rus></name_rus>
<name_eng>Araxa</name_eng>
<city_rus></city_rus>
<city_eng>Araxa</city_eng>
<country_rus>Бразилия</country_rus>
<country_eng>Brazil</country_eng>
<iso_code>BR</iso_code>

<latitude>-19.563247</latitude>
<longitude>-46.960358</longitude>
</airport><airport><iata_code>AAY</iata_code>
<icao_code>OYGD</icao_code>
<name_rus>Аль-Гайда</name_rus>
<name_eng>Al Ghaydah</name_eng>
<city_rus>Аль-Гайда</city_rus>
<city_eng>Al Ghaydah</city_eng>
<country_rus>Йемен</country_rus>

<country_eng>Yemen</country_eng>
<iso_code>YE</iso_code>
<latitude>16.191666</latitude>
<longitude>52.175000</longitude>
</airport><airport><iata_code>AAZ</iata_code>
<icao_code>MGQZ</icao_code>
<name_rus></name_rus>
<name_eng>Ambriz</name_eng>
<city_rus></city_rus>
<city_eng>Ambriz</city_eng>

<country_rus>Ангола</country_rus>
<country_eng>Angola</country_eng>
<iso_code>AO</iso_code>
<latitude>14.865550</latitude>
<longitude>-91.501981</longitude>
</airport><airport><iata_code>ABA</iata_code>
<icao_code>UNAA</icao_code>
<name_rus>Абакан</name_rus>
<name_eng>Abakan</name_eng>

<city_rus>Абакан</city_rus>
<city_eng>Abakan</city_eng>
<country_rus>Россия</country_rus>
<country_eng>Russian Federation</country_eng>
<iso_code>RU</iso_code>
<latitude>53.740000</latitude>
<longitude>91.385000</longitude>
</airport><airport><iata_code>ABB</iata_code>
<icao_code>EGUD</icao_code>

<name_rus></name_rus>
<name_eng>RAF Station</name_eng>
<city_rus>Абингдон</city_rus>
<city_eng>Abingdon</city_eng>
<country_rus>Великобритания</country_rus>
<country_eng>United Kingdom</country_eng>
<iso_code>GB</iso_code>
<latitude>51.690556</latitude>
<longitude>-1.316667</longitude>

</airport><airport><iata_code>ABC</iata_code>
<icao_code>LEAB</icao_code>
<name_rus></name_rus>
<name_eng>Los Llanos</name_eng>
<city_rus>Албасет</city_rus>
<city_eng>Albacete</city_eng>
<country_rus>Испания</country_rus>
<country_eng>Spain</country_eng>
<iso_code>ES</iso_code>

<latitude>38.948528</latitude>
<longitude>-1.863517</longitude>
</airport><airport><iata_code>ABD</iata_code>
<icao_code>OIAA</icao_code>
<name_rus>Абадан</name_rus>
<name_eng>Abadan</name_eng>
<city_rus>Абадан</city_rus>
<city_eng>Abadan</city_eng>
<country_rus>Иран</country_rus>

<country_eng>Iran</country_eng>
<iso_code>IR</iso_code>
<latitude>30.371111</latitude>
<longitude>48.228333</longitude>
</airport><airport><iata_code>ABF</iata_code>
<icao_code>NGAB</icao_code>
<name_rus>Абайянг</name_rus>
<name_eng>Abaiang</name_eng>
<city_rus>Абайянг</city_rus>

<city_eng>Abaiang</city_eng>
<country_rus>Кирибати</country_rus>
<country_eng>Kiribati</country_eng>
<iso_code>KI</iso_code>
<latitude>1.798611</latitude>
<longitude>173.040556</longitude>
</airport><airport><iata_code>ABG</iata_code>
<icao_code>YABI</icao_code>
<name_rus>Абингдон</name_rus>

<name_eng>Abingdon</name_eng>
<city_rus>Абингдон</city_rus>
<city_eng>Abingdon</city_eng>
<country_rus>Австралия</country_rus>
<country_eng>Australia</country_eng>
<iso_code>AU</iso_code>
<latitude>-17.617</latitude>
<longitude>143.167</longitude>
</airport><airport><iata_code>ABH</iata_code>

<icao_code>YAPH</icao_code>
<name_rus>Альфа</name_rus>
<name_eng>Alpha</name_eng>
<city_rus></city_rus>
<city_eng>Alpha</city_eng>
<country_rus>Австралия</country_rus>
<country_eng>Australia</country_eng>
<iso_code>AU</iso_code>
<latitude>-23.646111</latitude>

<longitude>146.583611</longitude>
</airport><airport><iata_code>ABI</iata_code>
<icao_code>KABI</icao_code>
<name_rus></name_rus>
<name_eng>Municipal</name_eng>
<city_rus></city_rus>
<city_eng>Abilene</city_eng>
<country_rus>США</country_rus>
<country_eng>United States</country_eng>
<iso_code>US</iso_code>

<latitude>32.411306</latitude>
<longitude>-99.681889</longitude>
</airport><airport><iata_code>ABJ</iata_code>
<icao_code>DIAP</icao_code>
<name_rus></name_rus>
<name_eng>Felix Houphouet Boigny</name_eng>
<city_rus>Абиджан</city_rus>
<city_eng>Abidjan</city_eng>
<country_rus>Кот д&#039;Ивуар</country_rus>

<country_eng>Cote D&#039;Ivoire</country_eng>
<iso_code>CI</iso_code>
<latitude>5.261386</latitude>
<longitude>-3.926294</longitude>
</airport><airport><iata_code>ABK</iata_code>
<icao_code>HAKD</icao_code>
<name_rus>Кабри-Дар</name_rus>
<name_eng>Kabri Dar</name_eng>

<city_rus>Кабри-Дар</city_rus>
<city_eng>Kabri Dar</city_eng>
<country_rus>Эфиопия</country_rus>
<country_eng>Ethiopia</country_eng>
<iso_code>ET</iso_code>
<latitude>6.734</latitude>
<longitude>44.253</longitude>
</airport><airport><iata_code>ABL</iata_code>
<icao_code>PAFM</icao_code>

<name_rus>Амблер</name_rus>
<name_eng>Ambler</name_eng>
<city_rus></city_rus>
<city_eng>Ambler</city_eng>
<country_rus>США</country_rus>
<country_eng>United States</country_eng>
<iso_code>US</iso_code>
<latitude>67.106314</latitude>
<longitude>-157.857472</longitude>

</airport><airport><iata_code>ABM</iata_code>
<icao_code>YBAM</icao_code>
<name_rus></name_rus>
<name_eng>Bamaga Injinoo</name_eng>
<city_rus></city_rus>
<city_eng>Bamaga, Queensland</city_eng>
<country_rus>Австралия</country_rus>
<country_eng>Australia</country_eng>
<iso_code>AU</iso_code>
<latitude>-10.950833</latitude>

<longitude>142.459444</longitude>
</airport><airport><iata_code>ABN</iata_code>
<icao_code>SMBN</icao_code>
<name_rus>Альбина</name_rus>
<name_eng>Albina</name_eng>
<city_rus>Альбина</city_rus>
<city_eng>Albina</city_eng>
<country_rus>Суринам</country_rus>
<country_eng>Suriname</country_eng>

<iso_code>SR</iso_code>
<latitude>5.513</latitude>
<longitude>-54.050</longitude>
</airport><airport><iata_code>ABO</iata_code>
<icao_code>DIAO</icao_code>
<name_rus></name_rus>
<name_eng>Aboisso</name_eng>
<city_rus></city_rus>
<city_eng>Aboisso</city_eng>
<country_rus>Кот д&#039;Ивуар</country_rus>

<country_eng>Cote D&#039;Ivoire</country_eng>
<iso_code>CI</iso_code>
<latitude>5.433</latitude>
<longitude>-3.267</longitude>
</airport><airport><iata_code>ABP</iata_code>
<icao_code></icao_code>
<name_rus>Аткамба</name_rus>
<name_eng>Atkamba</name_eng>
<city_rus>Аткамба</city_rus>

<city_eng>Atkamba</city_eng>
<country_rus>Папуа - Новая Гвинея</country_rus>
<country_eng>Papua New Guinea</country_eng>
<iso_code>PG</iso_code>
<latitude>-6.050</latitude>
<longitude>141.083</longitude>
</airport><airport><iata_code>ABQ</iata_code>
<icao_code>KABQ</icao_code>
<name_rus></name_rus>

<name_eng>Albuquerque International</name_eng>
<city_rus>Альбукерк</city_rus>
<city_eng>Albuquerque</city_eng>
<country_rus>США</country_rus>
<country_eng>United States</country_eng>
<iso_code>US</iso_code>
<latitude>35.040194</latitude>
<longitude>-106.609194</longitude>
</airport><airport><iata_code>ABR</iata_code>

<icao_code>KABR</icao_code>
<name_rus></name_rus>
<name_eng>Municipal</name_eng>
<city_rus></city_rus>
<city_eng>Aberdeen</city_eng>
<country_rus>США</country_rus>
<country_eng>United States</country_eng>
<iso_code>US</iso_code>
<latitude>45.449056</latitude>
<longitude>-98.421833</longitude>

</airport><airport><iata_code>ABS</iata_code>
<icao_code>HEBL</icao_code>
<name_rus>Абу-Симбель</name_rus>
<name_eng>Abu Simbel</name_eng>
<city_rus>Абу-Симбель</city_rus>
<city_eng>Abu Simbel</city_eng>
<country_rus>Египет</country_rus>
<country_eng>Egypt</country_eng>
<iso_code>EG</iso_code>

<latitude>22.375953</latitude>
<longitude>31.611722</longitude>
</airport><airport><iata_code>ABT</iata_code>
<icao_code>OEBA</icao_code>
<name_rus></name_rus>
<name_eng>Al-Aqiq</name_eng>
<city_rus></city_rus>
<city_eng>Al-Baha</city_eng>
<country_rus>Саудовская Аравия</country_rus>
<country_eng>Saudi Arabia</country_eng>

<iso_code>SA</iso_code>
<latitude>20.296139</latitude>
<longitude>41.634277</longitude>
</airport><airport><iata_code>ABU</iata_code>
<icao_code>WATA</icao_code>
<name_rus></name_rus>
<name_eng>Atambua</name_eng>
<city_rus></city_rus>
<city_eng>Atambua</city_eng>
<country_rus>Индонезия</country_rus>

<country_eng>Indonesia</country_eng>
<iso_code>ID</iso_code>
<latitude>-9.074444</latitude>
<longitude>124.904444</longitude>
</airport><airport><iata_code>ABV</iata_code>
<icao_code>DNAA</icao_code>
<name_rus></name_rus>
<name_eng>Nnamdi Azikiwe International Airport</name_eng>
<city_rus>Абуджа</city_rus>

<city_eng>Abuja</city_eng>
<country_rus>Нигерия</country_rus>
<country_eng>Nigeria</country_eng>
<iso_code>NG</iso_code>
<latitude>9.006792</latitude>
<longitude>7.263172</longitude>
</airport><airport><iata_code>ABW</iata_code>
<icao_code></icao_code>
<name_rus>Абау</name_rus>

<name_eng>Abau</name_eng>
<city_rus>Абау</city_rus>
<city_eng>Abau</city_eng>
<country_rus>Папуа - Новая Гвинея</country_rus>
<country_eng>Papua New Guinea</country_eng>
<iso_code>PG</iso_code>
<latitude>-10.200</latitude>
<longitude>148.733</longitude>
</airport><airport><iata_code>ABX</iata_code>

<icao_code>YMAY</icao_code>
<name_rus>Элбери</name_rus>
<name_eng>Albury</name_eng>
<city_rus>Элбери</city_rus>
<city_eng>Albury</city_eng>
<country_rus>Австралия</country_rus>
<country_eng>Australia</country_eng>
<iso_code>AU</iso_code>
<latitude>-36.067778</latitude>

<longitude>146.958056</longitude>
</airport><airport><iata_code>ABY</iata_code>
<icao_code>KABY</icao_code>
<name_rus></name_rus>
<name_eng>Dougherty County</name_eng>
<city_rus>Олбани</city_rus>
<city_eng>Albany</city_eng>
<country_rus>США</country_rus>
<country_eng>United States</country_eng>

<iso_code>US</iso_code>
<latitude>31.535515</latitude>
<longitude>-84.194473</longitude>
</airport><airport><iata_code>ABZ</iata_code>
<icao_code>EGPD</icao_code>
<name_rus></name_rus>
<name_eng>Dyce</name_eng>
<city_rus></city_rus>
<city_eng>Aberdeen</city_eng>
<country_rus>Великобритания</country_rus>

<country_eng>United Kingdom</country_eng>
<iso_code>GB</iso_code>
<latitude>57.201944</latitude>
<longitude>-2.197778</longitude>
</airport><airport><iata_code>ACB</iata_code>
<icao_code>KACB</icao_code>
<name_rus></name_rus>
<name_eng>Antrim County</name_eng>
<city_rus></city_rus>
<city_eng>Bellaire</city_eng>

<country_rus>США</country_rus>
<country_eng>United States</country_eng>
<iso_code>US</iso_code>
<latitude>44.988576</latitude>
<longitude>-85.198355</longitude>
</airport><airport><iata_code>ACC</iata_code>
<icao_code>DGAA</icao_code>
<name_rus>Котока</name_rus>
<name_eng>Kotoka</name_eng>

<city_rus></city_rus>
<city_eng>Accra</city_eng>
<country_rus>Гана</country_rus>
<country_eng>Ghana</country_eng>
<iso_code>GH</iso_code>
<latitude>5.605186</latitude>
<longitude>-0.166786</longitude>
</airport><airport><iata_code>ACD</iata_code>
<icao_code>SKAD</icao_code>

<name_rus>Аканди</name_rus>
<name_eng>Acandi</name_eng>
<city_rus>Аканди</city_rus>
<city_eng>Acandi</city_eng>
<country_rus>Колумбия</country_rus>
<country_eng>Colombia</country_eng>
<iso_code>CO</iso_code>
<latitude>8.500</latitude>
<longitude>-73.633</longitude>

</airport><airport><iata_code>ACE</iata_code>
<icao_code>GCRR</icao_code>
<name_rus>Ланцароте</name_rus>
<name_eng>Lanzarote</name_eng>
<city_rus>Арресиф</city_rus>
<city_eng>Arrecife</city_eng>
<country_rus>Испания</country_rus>
<country_eng>Spain</country_eng>
<iso_code>ES</iso_code>

<latitude>28.945464</latitude>
<longitude>-13.605225</longitude>
</airport><airport><iata_code>ACH</iata_code>
<icao_code>LSZR</icao_code>
<name_rus></name_rus>
<name_eng>Altenrhein</name_eng>
<city_rus></city_rus>
<city_eng>Altenrhein</city_eng>
<country_rus>Швейцария</country_rus>
<country_eng>Switzerland</country_eng>

<iso_code>CH</iso_code>
<latitude>47.485033</latitude>
<longitude>9.560775</longitude>
</airport><airport><iata_code>ACI</iata_code>
<icao_code>EGJA</icao_code>
<name_rus></name_rus>
<name_eng>The Blaye</name_eng>
<city_rus>Элдерни</city_rus>
<city_eng>Alderney</city_eng>

<country_rus>Великобритания</country_rus>
<country_eng>United Kingdom</country_eng>
<iso_code>GB</iso_code>
<latitude>49.706111</latitude>
<longitude>-2.214722</longitude>
</airport><airport><iata_code>ACJ</iata_code>
<icao_code>KACJ</icao_code>
<name_rus>Анурадхапура</name_rus>
<name_eng>Anuradhapura</name_eng>

<city_rus>Анурадхапура</city_rus>
<city_eng>Anuradhapura</city_eng>
<country_rus>Шри-Ланка</country_rus>
<country_eng>Sri Lanka</country_eng>
<iso_code>LK</iso_code>
<latitude>32.110799</latitude>
<longitude>-84.188848</longitude>
</airport><airport><iata_code>ACK</iata_code>
<icao_code>KACK</icao_code>

<name_rus></name_rus>
<name_eng>Nantucket Memorial</name_eng>
<city_rus></city_rus>
<city_eng>Nantucket</city_eng>
<country_rus>США</country_rus>
<country_eng>United States</country_eng>
<iso_code>US</iso_code>
<latitude>41.253111</latitude>
<longitude>-70.060306</longitude>
</airport><airport><iata_code>ACL</iata_code>

<icao_code></icao_code>
<name_rus></name_rus>
<name_eng>Aguaclara</name_eng>
<city_rus></city_rus>
<city_eng>Aguaclara</city_eng>
<country_rus>Колумбия</country_rus>
<country_eng>Colombia</country_eng>
<iso_code>CO</iso_code>
<latitude>4.749</latitude>
<longitude>-72.994</longitude>

</airport><airport><iata_code>ACM</iata_code>
<icao_code></icao_code>
<name_rus>Арика</name_rus>
<name_eng>Arica</name_eng>
<city_rus>Арика</city_rus>
<city_eng>Arica</city_eng>
<country_rus>Колумбия</country_rus>
<country_eng>Colombia</country_eng>
<iso_code>CO</iso_code>

<latitude>-2.133</latitude>
<longitude>-71.783</longitude>
</airport><airport><iata_code>ACN</iata_code>
<icao_code>MMCC</icao_code>
<name_rus></name_rus>
<name_eng>International</name_eng>
<city_rus>Сиудад-Акуна</city_rus>
<city_eng>Ciudad Acuna</city_eng>
<country_rus>Мексика</country_rus>

<country_eng>Mexico</country_eng>
<iso_code>MX</iso_code>
<latitude>29.333917</latitude>
<longitude>-101.100892</longitude>
</airport><airport><iata_code>ACO</iata_code>
<icao_code>LSZD</icao_code>
<name_rus>Аскона</name_rus>
<name_eng>Ascona</name_eng>
<city_rus>Аскона</city_rus>

<city_eng>Ascona</city_eng>
<country_rus>Швейцария</country_rus>
<country_eng>Switzerland</country_eng>
<iso_code>CH</iso_code>
<latitude>46.157778</latitude>
<longitude>8.781944</longitude>
</airport><airport><iata_code>ACP</iata_code>
<icao_code>OITM</icao_code>
<name_rus></name_rus>

<name_eng>Sahand</name_eng>
<city_rus></city_rus>
<city_eng>Sahand</city_eng>
<country_rus>Иран</country_rus>
<country_eng>Iran</country_eng>
<iso_code>IR</iso_code>
<latitude>37.348017</latitude>
<longitude>46.127903</longitude>
</airport><airport><iata_code>ACR</iata_code>

<icao_code>SKAC</icao_code>
<name_rus>Араракуара</name_rus>
<name_eng>Araracuara</name_eng>
<city_rus>Араракуара</city_rus>
<city_eng>Araracuara</city_eng>
<country_rus>Колумбия</country_rus>
<country_eng>Colombia</country_eng>
<iso_code>CO</iso_code>
<latitude>-0.601111</latitude>

<longitude>-72.397778</longitude>
</airport><airport><iata_code>ACS</iata_code>
<icao_code>UNKS</icao_code>
<name_rus>Ачинск</name_rus>
<name_eng>Achinsk</name_eng>
<city_rus>Ачинск</city_rus>
<city_eng>Achinsk</city_eng>
<country_rus>Россия</country_rus>
<country_eng>Russian Federation</country_eng>

<iso_code>RU</iso_code>
<latitude>56.268333</latitude>
<longitude>90.570833</longitude>
</airport><airport><iata_code>ACT</iata_code>
<icao_code>KACT</icao_code>
<name_rus></name_rus>
<name_eng>Municipal</name_eng>
<city_rus>Вако</city_rus>
<city_eng>Waco</city_eng>

<country_rus>США</country_rus>
<country_eng>United States</country_eng>
<iso_code>US</iso_code>
<latitude>31.611700</latitude>
<longitude>-97.230284</longitude>
</airport><airport><iata_code>ACU</iata_code>
<icao_code></icao_code>
<name_rus>Ахутупо</name_rus>
<name_eng>Achutupo</name_eng>

<city_rus>Ахутупо</city_rus>
<city_eng>Achutupo</city_eng>
<country_rus>Панама</country_rus>
<country_eng>Panama</country_eng>
<iso_code>PA</iso_code>
<latitude>9.183</latitude>
<longitude>-78.017</longitude>
</airport><airport><iata_code>ACV</iata_code>
<icao_code>KACV</icao_code>

<name_rus></name_rus>
<name_eng>Arcata</name_eng>
<city_rus></city_rus>
<city_eng>Arcata</city_eng>
<country_rus>США</country_rus>
<country_eng>United States</country_eng>
<iso_code>US</iso_code>
<latitude>40.978111</latitude>
<longitude>-124.108611</longitude>
</airport><airport><iata_code>ACX</iata_code>

<icao_code>ZUYI</icao_code>
<name_rus></name_rus>
<name_eng>Xingyi</name_eng>
<city_rus></city_rus>
<city_eng>Xingyi</city_eng>
<country_rus>Китай</country_rus>
<country_eng>China</country_eng>
<iso_code>CN</iso_code>
<latitude>25.155</latitude>
<longitude>104.971</longitude>

</airport><airport><iata_code>ACY</iata_code>
<icao_code>KACY</icao_code>
<name_rus></name_rus>
<name_eng>Atlantic City Intl</name_eng>
<city_rus>Атлантик Сити</city_rus>
<city_eng>Atlantic City</city_eng>
<country_rus>США</country_rus>
<country_eng>United States</country_eng>
<iso_code>US</iso_code>

<latitude>39.457583</latitude>
<longitude>-74.577167</longitude>
</airport><airport><iata_code>ACZ</iata_code>
<icao_code>OIZB</icao_code>
<name_rus></name_rus>
<name_eng>Zabol A/P</name_eng>
<city_rus>Забол</city_rus>
<city_eng>Zabol</city_eng>
<country_rus>Иран</country_rus>

<country_eng>Iran</country_eng>
<iso_code>IR</iso_code>
<latitude>31.098333</latitude>
<longitude>61.543889</longitude>
</airport><airport><iata_code>ADA</iata_code>
<icao_code>LTAF</icao_code>
<name_rus>Адана</name_rus>
<name_eng>Adana</name_eng>
<city_rus>Адана</city_rus>

<city_eng>Adana</city_eng>
<country_rus>Турция</country_rus>
<country_eng>Turkey</country_eng>
<iso_code>TR</iso_code>
<latitude>36.982166</latitude>
<longitude>35.280388</longitude>
</airport><airport><iata_code>ADB</iata_code>
<icao_code>LTBJ</icao_code>
<name_rus></name_rus>

<name_eng>Adnan Menderes</name_eng>
<city_rus>Измир</city_rus>
<city_eng>Izmir</city_eng>
<country_rus>Турция</country_rus>
<country_eng>Turkey</country_eng>
<iso_code>TR</iso_code>
<latitude>38.292392</latitude>
<longitude>27.156953</longitude>
</airport><airport><iata_code>ADC</iata_code>

<icao_code>KADC</icao_code>
<name_rus></name_rus>
<name_eng>Andakombe</name_eng>
<city_rus></city_rus>
<city_eng>Andakombe</city_eng>
<country_rus>Папуа - Новая Гвинея</country_rus>
<country_eng>Papua New Guinea</country_eng>
<iso_code>PG</iso_code>
<latitude>46.450270</latitude>
<longitude>-95.210955</longitude>

</airport><airport><iata_code>ADD</iata_code>
<icao_code>HAAB</icao_code>
<name_rus></name_rus>
<name_eng>Bole International</name_eng>
<city_rus>Аддис Абеба</city_rus>
<city_eng>Addis Ababa</city_eng>
<country_rus>Эфиопия</country_rus>
<country_eng>Ethiopia</country_eng>
<iso_code>ET</iso_code>

<latitude>8.977889</latitude>
<longitude>38.799319</longitude>
</airport><airport><iata_code>ADE</iata_code>
<icao_code>OYAA</icao_code>
<name_rus>Международный</name_rus>
<name_eng>International</name_eng>
<city_rus>Аден</city_rus>
<city_eng>Aden</city_eng>
<country_rus>Йемен</country_rus>

<country_eng>Yemen</country_eng>
<iso_code>YE</iso_code>
<latitude>12.829542</latitude>
<longitude>45.028792</longitude>
</airport><airport><iata_code>ADF</iata_code>
<icao_code>LTCP</icao_code>
<name_rus></name_rus>
<name_eng>Adiyaman</name_eng>
<city_rus></city_rus>
<city_eng>Adiyaman</city_eng>

<country_rus>Турция</country_rus>
<country_eng>Turkey</country_eng>
<iso_code>TR</iso_code>
<latitude>37.731369</latitude>
<longitude>38.468936</longitude>
</airport><airport><iata_code>ADG</iata_code>
<icao_code>KADG</icao_code>
<name_rus></name_rus>
<name_eng>Lenawee County</name_eng>

<city_rus></city_rus>
<city_eng>Adrian</city_eng>
<country_rus>США</country_rus>
<country_eng>United States</country_eng>
<iso_code>US</iso_code>
<latitude>41.867674</latitude>
<longitude>-84.077306</longitude>
</airport><airport><iata_code>ADH</iata_code>
<icao_code>UEEA</icao_code>

<name_rus>Алдан</name_rus>
<name_eng>Aldan</name_eng>
<city_rus>Алдан</city_rus>
<city_eng>Aldan</city_eng>
<country_rus>Россия</country_rus>
<country_eng>Russian Federation</country_eng>
<iso_code>RU</iso_code>
<latitude>58.602778</latitude>
<longitude>125.408889</longitude>

</airport><airport><iata_code>ADI</iata_code>
<icao_code>FYAR</icao_code>
<name_rus></name_rus>
<name_eng>Arandis</name_eng>
<city_rus></city_rus>
<city_eng>Arandis</city_eng>
<country_rus>Намибия</country_rus>
<country_eng>Namibia</country_eng>
<iso_code>NA</iso_code>
<latitude>-22.462223</latitude>

<longitude>14.980000</longitude>
</airport><airport><iata_code>ADJ</iata_code>
<icao_code>OJAM</icao_code>
<name_rus></name_rus>
<name_eng>Marka International Airport</name_eng>
<city_rus>Амман</city_rus>
<city_eng>Amman</city_eng>
<country_rus>Иордания</country_rus>
<country_eng>Jordan</country_eng>

<iso_code>JO</iso_code>
<latitude>31.972703</latitude>
<longitude>35.991569</longitude>
</airport><airport><iata_code>ADK</iata_code>
<icao_code>PADK</icao_code>
<name_rus></name_rus>
<name_eng>Adak Island NS</name_eng>
<city_rus></city_rus>
<city_eng>Adak Island</city_eng>
<country_rus>США</country_rus>

<country_eng>United States</country_eng>
<iso_code>US</iso_code>
<latitude>51.877964</latitude>
<longitude>-176.646031</longitude>
</airport><airport><iata_code>ADL</iata_code>
<icao_code>YPAD</icao_code>
<name_rus></name_rus>
<name_eng>Adelaide International Airport</name_eng>
<city_rus>Аделаида</city_rus>

<city_eng>Adelaide</city_eng>
<country_rus>Австралия</country_rus>
<country_eng>Australia</country_eng>
<iso_code>AU</iso_code>
<latitude>-34.945000</latitude>
<longitude>138.530556</longitude>
</airport><airport><iata_code>ADM</iata_code>
<icao_code>KADM</icao_code>
<name_rus></name_rus>

<name_eng>Ardmore Municipal Arpt</name_eng>
<city_rus>Ардмор</city_rus>
<city_eng>Ardmore</city_eng>
<country_rus>США</country_rus>
<country_eng>United States</country_eng>
<iso_code>US</iso_code>
<latitude>34.304250</latitude>
<longitude>-97.020583</longitude>
</airport><airport><iata_code>ADN</iata_code>

<icao_code>SKAN</icao_code>
<name_rus>Андес</name_rus>
<name_eng>Andes</name_eng>
<city_rus>Андес</city_rus>
<city_eng>Andes</city_eng>
<country_rus>Колумбия</country_rus>
<country_eng>Colombia</country_eng>
<iso_code>CO</iso_code>
<latitude>5.656</latitude>

<longitude>-75.879</longitude>
</airport><airport><iata_code>ADO</iata_code>
<icao_code>YAMK</icao_code>
<name_rus></name_rus>
<name_eng>Andamooka</name_eng>
<city_rus></city_rus>
<city_eng>Andamooka</city_eng>
<country_rus>Австралия</country_rus>
<country_eng>Australia</country_eng>
<iso_code>AU</iso_code>

<latitude>-30.437778</latitude>
<longitude>137.137222</longitude>
</airport><airport><iata_code>ADP</iata_code>
<icao_code>VCCA</icao_code>
<name_rus></name_rus>
<name_eng>Ampara</name_eng>
<city_rus></city_rus>
<city_eng>Ampara</city_eng>
<country_rus>Шри-Ланка</country_rus>
<country_eng>Sri Lanka</country_eng>

<iso_code>LK</iso_code>
<latitude>8.301486</latitude>
<longitude>80.427900</longitude>
</airport><airport><iata_code>ADQ</iata_code>
<icao_code>PADQ</icao_code>
<name_rus></name_rus>
<name_eng>Kodiak Airport</name_eng>
<city_rus></city_rus>
<city_eng>Kodiak</city_eng>
<country_rus>США</country_rus>

<country_eng>United States</country_eng>
<iso_code>US</iso_code>
<latitude>57.749968</latitude>
<longitude>-152.493855</longitude>
</airport><airport><iata_code>ADR</iata_code>
<icao_code>KPHH</icao_code>
<name_rus></name_rus>
<name_eng>Andrews</name_eng>
<city_rus></city_rus>
<city_eng>Andrews</city_eng>

<country_rus>США</country_rus>
<country_eng>United States</country_eng>
<iso_code>US</iso_code>
<latitude>33.451700</latitude>
<longitude>-79.526177</longitude>
</airport><airport><iata_code>ADS</iata_code>
<icao_code>KADS</icao_code>
<name_rus></name_rus>
<name_eng>Addison Airport</name_eng>

<city_rus>Даллас</city_rus>
<city_eng>Dallas</city_eng>
<country_rus>США</country_rus>
<country_eng>United States</country_eng>
<iso_code>US</iso_code>
<latitude>32.968559</latitude>
<longitude>-96.836448</longitude>
</airport><airport><iata_code>ADT</iata_code>
<icao_code>KADH</icao_code>

<name_rus>Ада</name_rus>
<name_eng>Ada</name_eng>
<city_rus>Ада</city_rus>
<city_eng>Ada</city_eng>
<country_rus>США</country_rus>
<country_eng>United States</country_eng>
<iso_code>US</iso_code>
<latitude>34.804262</latitude>
<longitude>-96.671200</longitude>

</airport><airport><iata_code>ADU</iata_code>
<icao_code>OITL</icao_code>
<name_rus></name_rus>
<name_eng>Ardabil</name_eng>
<city_rus></city_rus>
<city_eng>Ardabil</city_eng>
<country_rus>Иран</country_rus>
<country_eng>Iran</country_eng>
<iso_code>IR</iso_code>
<latitude>38.325678</latitude>

<longitude>48.424356</longitude>
</airport><airport><iata_code>ADV</iata_code>
<icao_code>EGWA</icao_code>
<name_rus>Эндовер</name_rus>
<name_eng>Andover</name_eng>
<city_rus>Эндовер</city_rus>
<city_eng>Andover</city_eng>
<country_rus>Великобритания</country_rus>
<country_eng>United Kingdom</country_eng>

<iso_code>GB</iso_code>
<latitude>51.207</latitude>
<longitude>-1.528</longitude>
</airport><airport><iata_code>ADW</iata_code>
<icao_code>KADW</icao_code>
<name_rus></name_rus>
<name_eng>Andrews AFB</name_eng>
<city_rus></city_rus>
<city_eng>Camp Springs</city_eng>
<country_rus>США</country_rus>

<country_eng>United States</country_eng>
<iso_code>US</iso_code>
<latitude>38.810833</latitude>
<longitude>-76.867000</longitude>
</airport><airport><iata_code>ADX</iata_code>
<icao_code>EGQL</icao_code>
<name_rus></name_rus>
<name_eng>Leuchars</name_eng>
<city_rus></city_rus>
<city_eng>St Andrews</city_eng>

<country_rus>Великобритания</country_rus>
<country_eng>United Kingdom</country_eng>
<iso_code>GB</iso_code>
<latitude>56.372889</latitude>
<longitude>-2.868444</longitude>
</airport><airport><iata_code>ADY</iata_code>
<icao_code>FAAL</icao_code>
<name_rus>Оллдейз</name_rus>
<name_eng>Alldays</name_eng>

<city_rus>Оллдейз</city_rus>
<city_eng>Alldays</city_eng>
<country_rus>ЮАР</country_rus>
<country_eng>South Africa</country_eng>
<iso_code>ZA</iso_code>
<latitude>-22.679017</latitude>
<longitude>29.055517</longitude>
</airport><airport><iata_code>ADZ</iata_code>
<icao_code>SKSP</icao_code>

<name_rus>Остров Сан Андрес</name_rus>
<name_eng>San Andres Island</name_eng>
<city_rus>Остров Сан Андрес</city_rus>
<city_eng>San Andres Island</city_eng>
<country_rus>Колумбия</country_rus>
<country_eng>Colombia</country_eng>
<iso_code>CO</iso_code>
<latitude>12.583683</latitude>
<longitude>-81.710919</longitude>

</airport><airport><iata_code>AEA</iata_code>
<icao_code>NGTB</icao_code>
<name_rus>Абемама-Атолл</name_rus>
<name_eng>Abemama Atoll</name_eng>
<city_rus>Абемама-Атолл</city_rus>
<city_eng>Abemama Atoll</city_eng>
<country_rus>Кирибати</country_rus>
<country_eng>Kiribati</country_eng>
<iso_code>KI</iso_code>

<latitude>0.490833</latitude>
<longitude>173.828611</longitude>
</airport><airport><iata_code>AED</iata_code>
<icao_code>KTDO</icao_code>
<name_rus></name_rus>
<name_eng>Aleneva</name_eng>
<city_rus></city_rus>
<city_eng>Aleneva</city_eng>
<country_rus>США</country_rus>
<country_eng>United States</country_eng>

<iso_code>US</iso_code>
<latitude>58.03333333</latitude>
<longitude>-152.9</longitude>
</airport><airport><iata_code>AEG</iata_code>
<icao_code>WIME</icao_code>
<name_rus>Эк-Годан</name_rus>
<name_eng>Aek Godang</name_eng>
<city_rus>Эк-Годан</city_rus>
<city_eng>Aek Godang</city_eng>

<country_rus>Индонезия</country_rus>
<country_eng>Indonesia</country_eng>
<iso_code>ID</iso_code>
<latitude>1.400103</latitude>
<longitude>99.430453</longitude>
</airport><airport><iata_code>AEH</iata_code>
<icao_code>FTTC</icao_code>
<name_rus></name_rus>
<name_eng>Abecher</name_eng>

<city_rus></city_rus>
<city_eng>Abecher</city_eng>
<country_rus>Чад</country_rus>
<country_eng>Chad</country_eng>
<iso_code>TD</iso_code>
<latitude>13.847000</latitude>
<longitude>20.844333</longitude>
</airport><airport><iata_code>AEI</iata_code>
<icao_code>OPKC</icao_code>

<name_rus>Альгесирас</name_rus>
<name_eng>Algeciras</name_eng>
<city_rus>Альгесирас</city_rus>
<city_eng>Algeciras</city_eng>
<country_rus>Испания</country_rus>
<country_eng>Spain</country_eng>
<iso_code>ES</iso_code>
<latitude>0</latitude>
<longitude>0</longitude>

</airport><airport><iata_code>AEK</iata_code>
<icao_code></icao_code>
<name_rus>Асеки</name_rus>
<name_eng>Aseki</name_eng>
<city_rus>Асеки</city_rus>
<city_eng>Aseki</city_eng>
<country_rus>Папуа - Новая Гвинея</country_rus>
<country_eng>Papua New Guinea</country_eng>
<iso_code>PG</iso_code>

<latitude>-7.350</latitude>
<longitude>146.183</longitude>
</airport><airport><iata_code>AEL</iata_code>
<icao_code>KAEL</icao_code>
<name_rus>Альберт Ли</name_rus>
<name_eng>Albert Lea</name_eng>
<city_rus>Альберт Ли</city_rus>
<city_eng>Albert Lea</city_eng>
<country_rus>США</country_rus>

<country_eng>United States</country_eng>
<iso_code>US</iso_code>
<latitude>43.681528</latitude>
<longitude>-93.367250</longitude>
</airport><airport><iata_code>AEO</iata_code>
<icao_code>GQNA</icao_code>
<name_rus></name_rus>
<name_eng>Aioun El Atrouss</name_eng>
<city_rus></city_rus>
<city_eng>Aioun El Atrouss</city_eng>

<country_rus>Мавритания</country_rus>
<country_eng>Mauritania</country_eng>
<iso_code>MR</iso_code>
<latitude>16.711293</latitude>
<longitude>-9.637883</longitude>
</airport><airport><iata_code>AEP</iata_code>
<icao_code>SABE</icao_code>
<name_rus></name_rus>
<name_eng>Arpt. Jorge Newbery</name_eng>

<city_rus>Буэнос-Айрес</city_rus>
<city_eng>Buenos Aires</city_eng>
<country_rus>Аргентина</country_rus>
<country_eng>Argentina</country_eng>
<iso_code>AR</iso_code>
<latitude>-34.559175</latitude>
<longitude>-58.415606</longitude>
</airport><airport><iata_code>AER</iata_code>
<icao_code>URSS</icao_code>

<name_rus>Адлер - Сочи</name_rus>
<name_eng>Adler - Sochi</name_eng>
<city_rus>Адлер</city_rus>
<city_eng>Adler</city_eng>
<country_rus>Россия</country_rus>
<country_eng>Russian Federation</country_eng>
<iso_code>RU</iso_code>
<latitude>43.449928</latitude>
<longitude>39.956589</longitude>

</airport><airport><iata_code>AES</iata_code>
<icao_code>ENAL</icao_code>
<name_rus>Вигра</name_rus>
<name_eng>Vigra</name_eng>
<city_rus></city_rus>
<city_eng>Aalesund</city_eng>
<country_rus>Норвегия</country_rus>
<country_eng>Norway</country_eng>
<iso_code>NO</iso_code>

<latitude>62.560372</latitude>
<longitude>6.110164</longitude>
</airport><airport><iata_code>AET</iata_code>
<icao_code>PFAL</icao_code>
<name_rus></name_rus>
<name_eng>Allakaket</name_eng>
<city_rus></city_rus>
<city_eng>Allakaket</city_eng>
<country_rus>США</country_rus>
<country_eng>United States</country_eng>

<iso_code>US</iso_code>
<latitude>66.551833</latitude>
<longitude>-152.622167</longitude>
</airport><airport><iata_code>AEU</iata_code>
<icao_code>OIBA</icao_code>
<name_rus></name_rus>
<name_eng>Abu Musa</name_eng>
<city_rus></city_rus>
<city_eng>Abu Musa</city_eng>
<country_rus>Иран</country_rus>

<country_eng>Iran</country_eng>
<iso_code>IR</iso_code>
<latitude>25.875742</latitude>
<longitude>55.032994</longitude>
</airport><airport><iata_code>AEX</iata_code>
<icao_code>KAEX</icao_code>
<name_rus>Александрия международный</name_rus>
<name_eng>Alexandria International</name_eng>
<city_rus></city_rus>

<city_eng>Alexandria, LA</city_eng>
<country_rus>США</country_rus>
<country_eng>United States</country_eng>
<iso_code>US</iso_code>
<latitude>31.327372</latitude>
<longitude>-92.548556</longitude>
</airport><airport><iata_code>AEY</iata_code>
<icao_code>BIAR</icao_code>
<name_rus>Акурейри</name_rus>

<name_eng>Akureyri</name_eng>
<city_rus>Акурейри</city_rus>
<city_eng>Akureyri</city_eng>
<country_rus>Исландия</country_rus>
<country_eng>Iceland</country_eng>
<iso_code>IS</iso_code>
<latitude>65.658610</latitude>
<longitude>-18.072222</longitude>
</airport><airport><iata_code>AFA</iata_code>

<icao_code>SAMR</icao_code>
<name_rus>Сан-Рафаэль</name_rus>
<name_eng>San Rafael</name_eng>
<city_rus>Сан-Рафаэль</city_rus>
<city_eng>San Rafael</city_eng>
<country_rus>Аргентина</country_rus>
<country_eng>Argentina</country_eng>
<iso_code>AR</iso_code>
<latitude>-34.588314</latitude>

<longitude>-68.403854</longitude>
</airport><airport><iata_code>AFD</iata_code>
<icao_code>FAPA</icao_code>
<name_rus>Порт Альфред</name_rus>
<name_eng>Port Alfred</name_eng>
<city_rus>Порт Альфред</city_rus>
<city_eng>Port Alfred</city_eng>
<country_rus>ЮАР</country_rus>
<country_eng>South Africa</country_eng>

<iso_code>ZA</iso_code>
<latitude>-33.554167</latitude>
<longitude>26.879722</longitude>
</airport><airport><iata_code>AFF</iata_code>
<icao_code>KAFF</icao_code>
<name_rus></name_rus>
<name_eng>USAF Academy Airstrip</name_eng>
<city_rus>Колорадо Спрингз</city_rus>
<city_eng>Colorado Springs</city_eng>

<country_rus>США</country_rus>
<country_eng>United States</country_eng>
<iso_code>US</iso_code>
<latitude>38.969715</latitude>
<longitude>-104.812831</longitude>
</airport><airport><iata_code>AFI</iata_code>
<icao_code>SKAM</icao_code>
<name_rus>Амалфи</name_rus>
<name_eng>Amalfi</name_eng>

<city_rus>Амалфи</city_rus>
<city_eng>Amalfi</city_eng>
<country_rus>Колумбия</country_rus>
<country_eng>Colombia</country_eng>
<iso_code>CO</iso_code>
<latitude>6.916667</latitude>
<longitude>-75.066667</longitude>
</airport><airport><iata_code>AFK</iata_code>
<icao_code>KAFK</icao_code>

<name_rus></name_rus>
<name_eng>Kondavattavan Tank</name_eng>
<city_rus></city_rus>
<city_eng>Ampara</city_eng>
<country_rus>Шри-Ланка</country_rus>
<country_eng>Sri Lanka</country_eng>
<iso_code>LK</iso_code>
<latitude>40.605444</latitude>
<longitude>-95.867750</longitude>
</airport><airport><iata_code>AFL</iata_code>

<icao_code>SBAT</icao_code>
<name_rus>Алта-Флореста</name_rus>
<name_eng>Alta Floresta</name_eng>
<city_rus>Алта-Флореста</city_rus>
<city_eng>Alta Floresta</city_eng>
<country_rus>Бразилия</country_rus>
<country_eng>Brazil</country_eng>
<iso_code>BR</iso_code>
<latitude>-9.866092</latitude>

<longitude>-56.106206</longitude>
</airport><airport><iata_code>AFN</iata_code>
<icao_code>KAFN</icao_code>
<name_rus></name_rus>
<name_eng>Municipal</name_eng>
<city_rus></city_rus>
<city_eng>Jaffrey</city_eng>
<country_rus>США</country_rus>
<country_eng>United States</country_eng>
<iso_code>US</iso_code>

<latitude>42.805134</latitude>
<longitude>-72.003022</longitude>
</airport><airport><iata_code>AFO</iata_code>
<icao_code>KAFO</icao_code>
<name_rus></name_rus>
<name_eng>Municipal</name_eng>
<city_rus>Афтон</city_rus>
<city_eng>Afton</city_eng>
<country_rus>США</country_rus>

<country_eng>United States</country_eng>
<iso_code>US</iso_code>
<latitude>42.708778</latitude>
<longitude>-110.942167</longitude>
</airport><airport><iata_code>AFR</iata_code>
<icao_code></icao_code>
<name_rus>Афоре</name_rus>
<name_eng>Afore</name_eng>
<city_rus>Афоре</city_rus>

<city_eng>Afore</city_eng>
<country_rus>Папуа - Новая Гвинея</country_rus>
<country_eng>Papua New Guinea</country_eng>
<iso_code>PG</iso_code>
<latitude>-9.133</latitude>
<longitude>148.383</longitude>
</airport><airport><iata_code>AFS</iata_code>
<icao_code>UTSN</icao_code>
<name_rus>Зарафшан</name_rus>

<name_eng>Zarafshan</name_eng>
<city_rus>Зарафшан</city_rus>
<city_eng>Zarafshan</city_eng>
<country_rus>Узбекистан</country_rus>
<country_eng>Uzbekistan</country_eng>
<iso_code>UZ</iso_code>
<latitude>41.613611</latitude>
<longitude>64.232777</longitude>
</airport><airport><iata_code>AFT</iata_code>

<icao_code>AGAF</icao_code>
<name_rus></name_rus>
<name_eng>Afutara Aerodrome</name_eng>
<city_rus>Афутара</city_rus>
<city_eng>Afutara</city_eng>
<country_rus>Соломоновы острова</country_rus>
<country_eng>Solomon Islands</country_eng>
<iso_code>SB</iso_code>
<latitude>-9.191111</latitude>

<longitude>160.949167</longitude>
</airport><airport><iata_code>AFW</iata_code>
<icao_code>KAFW</icao_code>
<name_rus></name_rus>
<name_eng>Fort Worth Alliance</name_eng>
<city_rus></city_rus>
<city_eng>Fort Worth, TX</city_eng>
<country_rus>США</country_rus>
<country_eng>United States</country_eng>
<iso_code>US</iso_code>

<latitude>32.987639</latitude>
<longitude>-97.318806</longitude>
</airport><airport><iata_code>AFY</iata_code>
<icao_code>LTAH</icao_code>
<name_rus>Афион</name_rus>
<name_eng>Afyon</name_eng>
<city_rus>Афион</city_rus>
<city_eng>Afyon</city_eng>
<country_rus>Турция</country_rus>

<country_eng>Turkey</country_eng>
<iso_code>TR</iso_code>
<latitude>38.726425</latitude>
<longitude>30.601114</longitude>
</airport><airport><iata_code>AFZ</iata_code>
<icao_code>OIMS</icao_code>
<name_rus></name_rus>
<name_eng>Sabzevar</name_eng>
<city_rus></city_rus>
<city_eng>Sabzevar</city_eng>

<country_rus>Иран</country_rus>
<country_eng>Iran</country_eng>
<iso_code>IR</iso_code>
<latitude>36.168083</latitude>
<longitude>57.595183</longitude>
</airport><airport><iata_code>AGA</iata_code>
<icao_code>GMAD</icao_code>
<name_rus>Агадир Альмассира</name_rus>
<name_eng>Agadir Almassira</name_eng>

<city_rus>Агадир</city_rus>
<city_eng>Agadir</city_eng>
<country_rus>Марокко</country_rus>
<country_eng>Morocco</country_eng>
<iso_code>MA</iso_code>
<latitude>30.324997</latitude>
<longitude>-9.413067</longitude>
</airport><airport><iata_code>AGB</iata_code>
<icao_code>EDMA</icao_code>

<name_rus></name_rus>
<name_eng>Augsburg - Muehlhausen</name_eng>
<city_rus>Мюнхен</city_rus>
<city_eng>Munich</city_eng>
<country_rus>Германия</country_rus>
<country_eng>Germany</country_eng>
<iso_code>DE</iso_code>
<latitude>48.425158</latitude>
<longitude>10.931764</longitude>

</airport><airport><iata_code>AGC</iata_code>
<icao_code>KAGC</icao_code>
<name_rus></name_rus>
<name_eng>Allegheny County</name_eng>
<city_rus>Питтсборо</city_rus>
<city_eng>Pittsburgh</city_eng>
<country_rus>США</country_rus>
<country_eng>United States</country_eng>
<iso_code>US</iso_code>

<latitude>40.354401</latitude>
<longitude>-79.930169</longitude>
</airport><airport><iata_code>AGD</iata_code>
<icao_code>WASG</icao_code>
<name_rus>Ангги</name_rus>
<name_eng>Anggi</name_eng>
<city_rus>Ангги</city_rus>
<city_eng>Anggi</city_eng>
<country_rus>Индонезия</country_rus>

<country_eng>Indonesia</country_eng>
<iso_code>ID</iso_code>
<latitude>-1.383</latitude>
<longitude>133.867</longitude>
</airport><airport><iata_code>AGE</iata_code>
<icao_code>EDWG</icao_code>
<name_rus></name_rus>
<name_eng>Flugplatz</name_eng>
<city_rus>Вангерооге</city_rus>

<city_eng>Wangerooge</city_eng>
<country_rus>Германия</country_rus>
<country_eng>Germany</country_eng>
<iso_code>DE</iso_code>
<latitude>53.788333</latitude>
<longitude>7.920556</longitude>
</airport><airport><iata_code>AGF</iata_code>
<icao_code>LFBA</icao_code>
<name_rus></name_rus>

<name_eng>La Garenne</name_eng>
<city_rus>Аген</city_rus>
<city_eng>Agen</city_eng>
<country_rus>Франция</country_rus>
<country_eng>France</country_eng>
<iso_code>FR</iso_code>
<latitude>44.174714</latitude>
<longitude>0.590619</longitude>
</airport><airport><iata_code>AGG</iata_code>

<icao_code></icao_code>
<name_rus>Ангорам</name_rus>
<name_eng>Angoram</name_eng>
<city_rus>Ангорам</city_rus>
<city_eng>Angoram</city_eng>
<country_rus>Папуа - Новая Гвинея</country_rus>
<country_eng>Papua New Guinea</country_eng>
<iso_code>PG</iso_code>
<latitude>-4.050</latitude>

<longitude>144.067</longitude>
</airport><airport><iata_code>AGH</iata_code>
<icao_code>ESTA</icao_code>
<name_rus></name_rus>
<name_eng>Angelholm</name_eng>
<city_rus></city_rus>
<city_eng>Angelholm/Helsingborg</city_eng>
<country_rus>Швеция</country_rus>
<country_eng>Sweden</country_eng>
<iso_code>SE</iso_code>

<latitude>56.296072</latitude>
<longitude>12.847139</longitude>
</airport><airport><iata_code>AGI</iata_code>
<icao_code>SMWA</icao_code>
<name_rus>Вагенинген</name_rus>
<name_eng>Wageningen</name_eng>
<city_rus>Вагенинген</city_rus>
<city_eng>Wageningen</city_eng>
<country_rus>Суринам</country_rus>

<country_eng>Suriname</country_eng>
<iso_code>SR</iso_code>
<latitude>5.833</latitude>
<longitude>-56.650</longitude>
</airport><airport><iata_code>AGJ</iata_code>
<icao_code>RORA</icao_code>
<name_rus>Агуни</name_rus>
<name_eng>Aguni</name_eng>
<city_rus>Агуни</city_rus>

<city_eng>Aguni</city_eng>
<country_rus>Япония</country_rus>
<country_eng>Japan</country_eng>
<iso_code>JP</iso_code>
<latitude>26.592499</latitude>
<longitude>127.240833</longitude>
</airport><airport><iata_code>AGK</iata_code>
<icao_code></icao_code>
<name_rus>Кагуа</name_rus>

<name_eng>Kagua</name_eng>
<city_rus>Кагуа</city_rus>
<city_eng>Kagua</city_eng>
<country_rus>Папуа - Новая Гвинея</country_rus>
<country_eng>Papua New Guinea</country_eng>
<iso_code>PG</iso_code>
<latitude>-6.383</latitude>
<longitude>143.850</longitude>
</airport><airport><iata_code>AGL</iata_code>

<icao_code></icao_code>
<name_rus>Ванигела</name_rus>
<name_eng>Wanigela</name_eng>
<city_rus>Ванигела</city_rus>
<city_eng>Wanigela</city_eng>
<country_rus>Папуа - Новая Гвинея</country_rus>
<country_eng>Papua New Guinea</country_eng>
<iso_code>PG</iso_code>
<latitude>-9.333</latitude>

<longitude>149.150</longitude>
</airport><airport><iata_code>AGM</iata_code>
<icao_code>BGAM</icao_code>
<name_rus></name_rus>
<name_eng>Tasiilaq</name_eng>
<city_rus></city_rus>
<city_eng>Tasiilaq</city_eng>
<country_rus>Гренландия</country_rus>
<country_eng>Greenland</country_eng>
<iso_code>GL</iso_code>

<latitude>65.612222</latitude>
<longitude>-37.618333</longitude>
</airport><airport><iata_code>AGN</iata_code>
<icao_code>PAGN</icao_code>
<name_rus>Ангун</name_rus>
<name_eng>Angoon</name_eng>
<city_rus></city_rus>
<city_eng>Angoon</city_eng>
<country_rus>США</country_rus>

<country_eng>United States</country_eng>
<iso_code>US</iso_code>
<latitude>57.503555</latitude>
<longitude>-134.585094</longitude>
</airport><airport><iata_code>AGO</iata_code>
<icao_code>KAGO</icao_code>
<name_rus></name_rus>
<name_eng>Municipal</name_eng>
<city_rus></city_rus>
<city_eng>Magnolia</city_eng>

<country_rus>США</country_rus>
<country_eng>United States</country_eng>
<iso_code>US</iso_code>
<latitude>33.227468</latitude>
<longitude>-93.216992</longitude>
</airport><airport><iata_code>AGP</iata_code>
<icao_code>LEMG</icao_code>
<name_rus></name_rus>
<name_eng>Pablo Ruiz Picasso</name_eng>

<city_rus>Малага</city_rus>
<city_eng>Malaga</city_eng>
<country_rus>Испания</country_rus>
<country_eng>Spain</country_eng>
<iso_code>ES</iso_code>
<latitude>36.674900</latitude>
<longitude>-4.499106</longitude>
</airport><airport><iata_code>AGQ</iata_code>
<icao_code>LGAG</icao_code>

<name_rus>Агринио</name_rus>
<name_eng>Agrinion</name_eng>
<city_rus>Агринио</city_rus>
<city_eng>Agrinion</city_eng>
<country_rus>Греция</country_rus>
<country_eng>Greece</country_eng>
<iso_code>GR</iso_code>
<latitude>38.602022</latitude>
<longitude>21.351208</longitude>

</airport><airport><iata_code>AGR</iata_code>
<icao_code>VIAG</icao_code>
<name_rus></name_rus>
<name_eng>Kheria</name_eng>
<city_rus>Агра</city_rus>
<city_eng>Agra</city_eng>
<country_rus>Индия</country_rus>
<country_eng>India</country_eng>
<iso_code>IN</iso_code>

<latitude>27.155831</latitude>
<longitude>77.960892</longitude>
</airport><airport><iata_code>AGS</iata_code>
<icao_code>KAGS</icao_code>
<name_rus></name_rus>
<name_eng>Bush Field</name_eng>
<city_rus></city_rus>
<city_eng>Augusta</city_eng>
<country_rus>США</country_rus>
<country_eng>United States</country_eng>

<iso_code>US</iso_code>
<latitude>33.369943</latitude>
<longitude>-81.964500</longitude>
</airport><airport><iata_code>AGT</iata_code>
<icao_code>SGES</icao_code>
<name_rus></name_rus>
<name_eng>Alejo Garcia</name_eng>
<city_rus>Кудад-дель-Эсте</city_rus>
<city_eng>Ciudad Del Este</city_eng>

<country_rus>Парагвай</country_rus>
<country_eng>Paraguay</country_eng>
<iso_code>PY</iso_code>
<latitude>-25.455500</latitude>
<longitude>-54.843592</longitude>
</airport><airport><iata_code>AGU</iata_code>
<icao_code>MMAS</icao_code>
<name_rus></name_rus>
<name_eng>Aguascalients</name_eng>

<city_rus>Агуаскалиентес</city_rus>
<city_eng>Aguascalientes</city_eng>
<country_rus>Мексика</country_rus>
<country_eng>Mexico</country_eng>
<iso_code>MX</iso_code>
<latitude>21.705558</latitude>
<longitude>-102.317858</longitude>
</airport><airport><iata_code>AGV</iata_code>
<icao_code>SVAC</icao_code>

<name_rus>Акарикуа</name_rus>
<name_eng>Acarigua</name_eng>
<city_rus>Акарикуа</city_rus>
<city_eng>Acarigua</city_eng>
<country_rus>Венесуэла</country_rus>
<country_eng>Venezuela</country_eng>
<iso_code>VE</iso_code>
<latitude>9.553422</latitude>
<longitude>-69.237536</longitude>

</airport><airport><iata_code>AGW</iata_code>
<icao_code></icao_code>
<name_rus></name_rus>
<name_eng>Agnew</name_eng>
<city_rus></city_rus>
<city_eng>Agnew</city_eng>
<country_rus>Австралия</country_rus>
<country_eng>Australia</country_eng>
<iso_code>AU</iso_code>
<latitude>-12.145556</latitude>

<longitude>142.149167</longitude>
</airport><airport><iata_code>AGX</iata_code>
<icao_code>VOAT</icao_code>
<name_rus>Агатти-Айленд</name_rus>
<name_eng>Agatti Island</name_eng>
<city_rus>Агатти-Айленд</city_rus>
<city_eng>Agatti Island</city_eng>
<country_rus>Индия</country_rus>
<country_eng>India</country_eng>

<iso_code>IN</iso_code>
<latitude>10.823656</latitude>
<longitude>72.176042</longitude>
</airport><airport><iata_code>AGY</iata_code>
<icao_code></icao_code>
<name_rus></name_rus>
<name_eng>Argyle Downs</name_eng>
<city_rus></city_rus>
<city_eng>Argyle Downs</city_eng>
<country_rus>Австралия</country_rus>

<country_eng>Australia</country_eng>
<iso_code>AU</iso_code>
<latitude>-16.333</latitude>
<longitude>128.767</longitude>
</airport><airport><iata_code>AGZ</iata_code>
<icao_code>FAAG</icao_code>
<name_rus>Аггенейз</name_rus>
<name_eng>Aggeneys</name_eng>
<city_rus>Аггенейз</city_rus>

<city_eng>Aggeneys</city_eng>
<country_rus>ЮАР</country_rus>
<country_eng>South Africa</country_eng>
<iso_code>ZA</iso_code>
<latitude>-29.281767</latitude>
<longitude>18.813869</longitude>
</airport><airport><iata_code>AHA</iata_code>
<icao_code>RORG</icao_code>
<name_rus></name_rus>

<name_eng>Naha Air Force Base</name_eng>
<city_rus>Окинава</city_rus>
<city_eng>Okinawa</city_eng>
<country_rus>Япония</country_rus>
<country_eng>Japan</country_eng>
<iso_code>JP</iso_code>
<latitude>26.2</latitude>
<longitude>127.65</longitude>
</airport><airport><iata_code>AHB</iata_code>

<icao_code>OEAB</icao_code>
<name_rus>Абха</name_rus>
<name_eng>Abha</name_eng>
<city_rus>Абха</city_rus>
<city_eng>Abha</city_eng>
<country_rus>Саудовская Аравия</country_rus>
<country_eng>Saudi Arabia</country_eng>
<iso_code>SA</iso_code>
<latitude>18.240367</latitude>

<longitude>42.656625</longitude>
</airport><airport><iata_code>AHC</iata_code>
<icao_code>KAHC</icao_code>
<name_rus></name_rus>
<name_eng>Amedee AAF</name_eng>
<city_rus></city_rus>
<city_eng>Herlong</city_eng>
<country_rus>Норвегия</country_rus>
<country_eng>Norway</country_eng>
<iso_code>NO</iso_code>

<latitude>40.265918</latitude>
<longitude>-120.150613</longitude>
</airport><airport><iata_code>AHD</iata_code>
<icao_code>KAHD</icao_code>
<name_rus></name_rus>
<name_eng>Downtown</name_eng>
<city_rus>Ардмор</city_rus>
<city_eng>Ardmore</city_eng>
<country_rus>США</country_rus>

<country_eng>United States</country_eng>
<iso_code>US</iso_code>
<latitude>34.146989</latitude>
<longitude>-97.122652</longitude>
</airport><airport><iata_code>AHE</iata_code>
<icao_code>NTHE</icao_code>
<name_rus></name_rus>
<name_eng>Ahe Airport</name_eng>
<city_rus></city_rus>
<city_eng>Ahe</city_eng>

<country_rus>Французская Полинезия</country_rus>
<country_eng>French Polynesia</country_eng>
<iso_code>PF</iso_code>
<latitude>-14.427778</latitude>
<longitude>-146.255000</longitude>
</airport><airport><iata_code>AHF</iata_code>
<icao_code></icao_code>
<name_rus></name_rus>
<name_eng>Municipal</name_eng>
<city_rus></city_rus>

<city_eng>Arapahoe</city_eng>
<country_rus>Гватемала</country_rus>
<country_eng>Guatemala</country_eng>
<iso_code>GT</iso_code>
<latitude>40.339451</latitude>
<longitude>-99.906513</longitude>
</airport><airport><iata_code>AHH</iata_code>
<icao_code>KAHH</icao_code>
<name_rus></name_rus>

<name_eng>Municipal</name_eng>
<city_rus></city_rus>
<city_eng>Amery</city_eng>
<country_rus>США</country_rus>
<country_eng>United States</country_eng>
<iso_code>US</iso_code>
<latitude>45.281148</latitude>
<longitude>-92.375392</longitude>
</airport><airport><iata_code>AHI</iata_code>

<icao_code>WAPA</icao_code>
<name_rus>Амахаи</name_rus>
<name_eng>Amahai</name_eng>
<city_rus>Амахаи</city_rus>
<city_eng>Amahai</city_eng>
<country_rus>Индонезия</country_rus>
<country_eng>Indonesia</country_eng>
<iso_code>ID</iso_code>
<latitude>-3.348</latitude>

<longitude>128.926</longitude>
</airport><airport><iata_code>AHL</iata_code>
<icao_code>SYAH</icao_code>
<name_rus>Аисхалтон</name_rus>
<name_eng>Aishalton</name_eng>
<city_rus>Аисхалтон</city_rus>
<city_eng>Aishalton</city_eng>
<country_rus>Гайана</country_rus>
<country_eng>Guyana</country_eng>

<iso_code>GY</iso_code>
<latitude>2.473604</latitude>
<longitude>-59.321110</longitude>
</airport><airport><iata_code>AHN</iata_code>
<icao_code>KAHN</icao_code>
<name_rus>Афины</name_rus>
<name_eng>Athens</name_eng>
<city_rus>Афины</city_rus>
<city_eng>Athens</city_eng>

<country_rus>Греция</country_rus>
<country_eng>Greece</country_eng>
<iso_code>GR</iso_code>
<latitude>33.948595</latitude>
<longitude>-83.326347</longitude>
</airport><airport><iata_code>AHO</iata_code>
<icao_code>LIEA</icao_code>
<name_rus></name_rus>
<name_eng>Fertilia</name_eng>

<city_rus></city_rus>
<city_eng>Alghero</city_eng>
<country_rus>Италия</country_rus>
<country_eng>Italy</country_eng>
<iso_code>IT</iso_code>
<latitude>40.632133</latitude>
<longitude>8.290772</longitude>
</airport><airport><iata_code>AHS</iata_code>
<icao_code></icao_code>
<name_rus>Ахуас</name_rus>

<name_eng>Ahuas</name_eng>
<city_rus>Ахуас</city_rus>
<city_eng>Ahuas</city_eng>
<country_rus>Гондурас</country_rus>
<country_eng>Honduras</country_eng>
<iso_code>HN</iso_code>
<latitude>15.472222</latitude>
<longitude>-84.352222</longitude>
</airport><airport><iata_code>AHT</iata_code>

<icao_code>PHKO</icao_code>
<name_rus>Ам-Тиман</name_rus>
<name_eng>Amchitka</name_eng>
<city_rus>Ам-Тиман</city_rus>
<city_eng>Amchitka</city_eng>
<country_rus>США</country_rus>
<country_eng>United States</country_eng>
<iso_code>US</iso_code>
<latitude>51.5</latitude>

<longitude>179</longitude>
</airport><airport><iata_code>AHU</iata_code>
<icao_code>GMTA</icao_code>
<name_rus></name_rus>
<name_eng>Charif Al Idrissi</name_eng>
<city_rus></city_rus>
<city_eng>Al Hoceima</city_eng>
<country_rus>Марокко</country_rus>
<country_eng>Morocco</country_eng>
<iso_code>MA</iso_code>

<latitude>35.177103</latitude>
<longitude>-3.839525</longitude>
</airport><airport><iata_code>AHY</iata_code>
<icao_code></icao_code>
<name_rus>Амбатолахи</name_rus>
<name_eng>Ambatolahy</name_eng>
<city_rus>Амбатолахи</city_rus>
<city_eng>Ambatolahy</city_eng>
<country_rus>Мадагаскар</country_rus>

<country_eng>Madagascar</country_eng>
<iso_code>MG</iso_code>
<latitude>-20.000</latitude>
<longitude>45.533</longitude>
</airport><airport><iata_code>AHZ</iata_code>
<icao_code>LFHU</icao_code>
<name_rus></name_rus>
<name_eng>Alpe D Huez</name_eng>
<city_rus></city_rus>
<city_eng>Alpe D Huez</city_eng>

<country_rus>Франция</country_rus>
<country_eng>France</country_eng>
<iso_code>FR</iso_code>
<latitude>45.088333</latitude>
<longitude>6.084722</longitude>
</airport><airport><iata_code>AIA</iata_code>
<icao_code>KAIA</icao_code>
<name_rus>Альянс</name_rus>
<name_eng>Alliance</name_eng>

<city_rus></city_rus>
<city_eng>Alliance</city_eng>
<country_rus>США</country_rus>
<country_eng>United States</country_eng>
<iso_code>US</iso_code>
<latitude>42.053222</latitude>
<longitude>-102.803778</longitude>
</airport><airport><iata_code>AIB</iata_code>
<icao_code>KGRK</icao_code>

<name_rus>Анита Бэй</name_rus>
<name_eng>Anita Bay</name_eng>
<city_rus></city_rus>
<city_eng>Anita Bay</city_eng>
<country_rus>США</country_rus>
<country_eng>United States</country_eng>
<iso_code>US</iso_code>
<latitude>56.233333333333</latitude>
<longitude>-132.38333333333</longitude>

</airport><airport><iata_code>AIC</iata_code>
<icao_code></icao_code>
<name_rus>Айрок</name_rus>
<name_eng>Airok</name_eng>
<city_rus></city_rus>
<city_eng>Airok, Ailinglaplap</city_eng>
<country_rus>Маршалловы острова</country_rus>
<country_eng>Marshall Islands</country_eng>
<iso_code>MH</iso_code>
<latitude>7.100</latitude>

<longitude>171.233</longitude>
</airport><airport><iata_code>AID</iata_code>
<icao_code>KAID</icao_code>
<name_rus></name_rus>
<name_eng>Municipal</name_eng>
<city_rus></city_rus>
<city_eng>Anderson</city_eng>
<country_rus>США</country_rus>
<country_eng>United States</country_eng>
<iso_code>US</iso_code>

<latitude>40.108611</latitude>
<longitude>-85.613000</longitude>
</airport><airport><iata_code>AIE</iata_code>
<icao_code></icao_code>
<name_rus>Айоме</name_rus>
<name_eng>Aiome</name_eng>
<city_rus>Айоме</city_rus>
<city_eng>Aiome</city_eng>
<country_rus>Папуа - Новая Гвинея</country_rus>

<country_eng>Papua New Guinea</country_eng>
<iso_code>PG</iso_code>
<latitude>-5.133</latitude>
<longitude>144.717</longitude>
</airport><airport><iata_code>AIF</iata_code>
<icao_code>SBAS</icao_code>
<name_rus></name_rus>
<name_eng>Assis</name_eng>
<city_rus></city_rus>
<city_eng>Assis</city_eng>

<country_rus>Бразилия</country_rus>
<country_eng>Brazil</country_eng>
<iso_code>BR</iso_code>
<latitude>-22.638564</latitude>
<longitude>-50.455914</longitude>
</airport><airport><iata_code>AIG</iata_code>
<icao_code>FEFY</icao_code>
<name_rus>Ялинга</name_rus>
<name_eng>Yalinga</name_eng>

<city_rus>Ялинга</city_rus>
<city_eng>Yalinga</city_eng>
<country_rus>Центральноафриканская Республика</country_rus>
<country_eng>Central African Republic</country_eng>
<iso_code>CF</iso_code>
<latitude>6.520</latitude>
<longitude>23.260</longitude>
</airport><airport><iata_code>AIH</iata_code>
<icao_code>OPKC</icao_code>

<name_rus></name_rus>
<name_eng>Aiambak</name_eng>
<city_rus></city_rus>
<city_eng>Aiambak</city_eng>
<country_rus>Папуа - Новая Гвинея</country_rus>
<country_eng>Papua New Guinea</country_eng>
<iso_code>PG</iso_code>
<latitude>-7.35</latitude>
<longitude>141.26666666667</longitude>
</airport><airport><iata_code>AII</iata_code>

<icao_code>HDAS</icao_code>
<name_rus></name_rus>
<name_eng>Alisabieh</name_eng>
<city_rus></city_rus>
<city_eng>Alisabieh</city_eng>
<country_rus>Джибути</country_rus>
<country_eng>Djibouti</country_eng>
<iso_code>DJ</iso_code>
<latitude>11.133</latitude>
<longitude>42.717</longitude>

</airport><airport><iata_code>AIK</iata_code>
<icao_code>KAIK</icao_code>
<name_rus></name_rus>
<name_eng>Municipal</name_eng>
<city_rus></city_rus>
<city_eng>Aiken</city_eng>
<country_rus>США</country_rus>
<country_eng>United States</country_eng>
<iso_code>US</iso_code>
<latitude>33.649376</latitude>

<longitude>-81.685036</longitude>
</airport><airport><iata_code>AIL</iata_code>
<icao_code></icao_code>
<name_rus>Айлиганди</name_rus>
<name_eng>Ailigandi</name_eng>
<city_rus>Айлиганди</city_rus>
<city_eng>Ailigandi</city_eng>
<country_rus>Панама</country_rus>
<country_eng>Panama</country_eng>

<iso_code>PA</iso_code>
<latitude>9.217</latitude>
<longitude>-78.017</longitude>
</airport><airport><iata_code>AIM</iata_code>
<icao_code></icao_code>
<name_rus></name_rus>
<name_eng>Ailuk Island</name_eng>
<city_rus></city_rus>
<city_eng>Ailuk Island</city_eng>
<country_rus>Маршалловы острова</country_rus>

<country_eng>Marshall Islands</country_eng>
<iso_code>MH</iso_code>
<latitude>10.200</latitude>
<longitude>169.983</longitude>
</airport><airport><iata_code>AIN</iata_code>
<icao_code>PAWI</icao_code>
<name_rus></name_rus>
<name_eng>Wainwright</name_eng>
<city_rus></city_rus>
<city_eng>Wainwright</city_eng>

<country_rus>США</country_rus>
<country_eng>United States</country_eng>
<iso_code>US</iso_code>
<latitude>70.638000</latitude>
<longitude>-159.994750</longitude>
</airport><airport><iata_code>AIO</iata_code>
<icao_code>KAIO</icao_code>
<name_rus></name_rus>
<name_eng>Municipal</name_eng>

<city_rus></city_rus>
<city_eng>Atlantic</city_eng>
<country_rus>США</country_rus>
<country_eng>United States</country_eng>
<iso_code>US</iso_code>
<latitude>41.403833</latitude>
<longitude>-95.048750</longitude>
</airport><airport><iata_code>AIP</iata_code>
<icao_code></icao_code>
<name_rus></name_rus>

<name_eng>Ailinglapalap Island</name_eng>
<city_rus></city_rus>
<city_eng>Ailinglapalap Island</city_eng>
<country_rus>Маршалловы острова</country_rus>
<country_eng>Marshall Islands</country_eng>
<iso_code>MH</iso_code>
<latitude>7.267</latitude>
<longitude>168.817</longitude>
</airport><airport><iata_code>AIR</iata_code>

<icao_code></icao_code>
<name_rus></name_rus>
<name_eng>Aripuana</name_eng>
<city_rus></city_rus>
<city_eng>Aripuana</city_eng>
<country_rus>Бразилия</country_rus>
<country_eng>Brazil</country_eng>
<iso_code>BR</iso_code>
<latitude>-10.186389</latitude>
<longitude>-59.457500</longitude>

</airport><airport><iata_code>AIS</iata_code>
<icao_code>NGTR</icao_code>
<name_rus>Ароре-Айленд</name_rus>
<name_eng>Arorae Island</name_eng>
<city_rus>Ароре-Айленд</city_rus>
<city_eng>Arorae Island</city_eng>
<country_rus>Кирибати</country_rus>
<country_eng>Kiribati</country_eng>
<iso_code>KI</iso_code>

<latitude>-2.616111</latitude>
<longitude>176.802500</longitude>
</airport><airport><iata_code>AIT</iata_code>
<icao_code>NCAI</icao_code>
<name_rus>Аитутаки</name_rus>
<name_eng>Aitutaki</name_eng>
<city_rus>Аитутаки</city_rus>
<city_eng>Aitutaki</city_eng>
<country_rus>Острова Кука</country_rus>

<country_eng>Cook Islands</country_eng>
<iso_code>CK</iso_code>
<latitude>-18.830922</latitude>
<longitude>-159.764233</longitude>
</airport><airport><iata_code>AIU</iata_code>
<icao_code>NCAT</icao_code>
<name_rus></name_rus>
<name_eng>Atiu Island</name_eng>
<city_rus></city_rus>
<city_eng>Atiu Island</city_eng>

<country_rus>Острова Кука</country_rus>
<country_eng>Cook Islands</country_eng>
<iso_code>CK</iso_code>
<latitude>-19.967778</latitude>
<longitude>-158.119167</longitude>
</airport><airport><iata_code>AIV</iata_code>
<icao_code>KAIV</icao_code>
<name_rus></name_rus>
<name_eng>George Downer</name_eng>

<city_rus></city_rus>
<city_eng>Aliceville</city_eng>
<country_rus>США</country_rus>
<country_eng>United States</country_eng>
<iso_code>US</iso_code>
<latitude>33.106465</latitude>
<longitude>-88.197792</longitude>
</airport><airport><iata_code>AIW</iata_code>
<icao_code>OPKC</icao_code>

<name_rus></name_rus>
<name_eng>Ai-ais</name_eng>
<city_rus></city_rus>
<city_eng>Ai-ais</city_eng>
<country_rus>Намибия</country_rus>
<country_eng>Namibia</country_eng>
<iso_code>NA</iso_code>
<latitude>-27.983333333333</latitude>
<longitude>17.583055555556</longitude>
</airport><airport><iata_code>AIY</iata_code>

<icao_code>KAIY</icao_code>
<name_rus></name_rus>
<name_eng>Bader Field</name_eng>
<city_rus>Атлантик Сити</city_rus>
<city_eng>Atlantic City</city_eng>
<country_rus>США</country_rus>
<country_eng>United States</country_eng>
<iso_code>US</iso_code>
<latitude>39.366666666667</latitude>

<longitude>-74.45</longitude>
</airport><airport><iata_code>AIZ</iata_code>
<icao_code>KAIZ</icao_code>
<name_rus></name_rus>
<name_eng>Lee C Fine Memorial</name_eng>
<city_rus></city_rus>
<city_eng>Kaiser/Lake Ozark</city_eng>
<country_rus>США</country_rus>
<country_eng>United States</country_eng>
<iso_code>US</iso_code>

<latitude>38.096035</latitude>
<longitude>-92.549488</longitude>
</airport><airport><iata_code>AJA</iata_code>
<icao_code>LFKJ</icao_code>
<name_rus>Кампо Дель Оро</name_rus>
<name_eng>Campo Dell Oro</name_eng>
<city_rus>Аяччио</city_rus>
<city_eng>Ajaccio</city_eng>
<country_rus>Франция</country_rus>

<country_eng>France</country_eng>
<iso_code>FR</iso_code>
<latitude>41.923889</latitude>
<longitude>8.802500</longitude>
</airport><airport><iata_code>AJF</iata_code>
<icao_code>OESK</icao_code>
<name_rus>Джуф</name_rus>
<name_eng>Jouf</name_eng>
<city_rus></city_rus>

<city_eng>Sakaka Al Jouf</city_eng>
<country_rus>Саудовская Аравия</country_rus>
<country_eng>Saudi Arabia</country_eng>
<iso_code>SA</iso_code>
<latitude>29.785133</latitude>
<longitude>40.100006</longitude>
</airport><airport><iata_code>AJI</iata_code>
<icao_code>LTCO</icao_code>
<name_rus></name_rus>

<name_eng>A&amp;#287;ri</name_eng>
<city_rus>Агри</city_rus>
<city_eng>Agri</city_eng>
<country_rus>Италия</country_rus>
<country_eng>Italy</country_eng>
<iso_code>IT</iso_code>
<latitude>39.654569</latitude>
<longitude>43.027150</longitude>

</airport><airport><iata_code>AJJ</iata_code>
<icao_code>GQNJ</icao_code>
<name_rus>Акжужт</name_rus>
<name_eng>Akjoujt</name_eng>
<city_rus>Акжужт</city_rus>
<city_eng>Akjoujt</city_eng>
<country_rus>Мавритания</country_rus>
<country_eng>Mauritania</country_eng>
<iso_code>MR</iso_code>

<latitude>19.731667</latitude>
<longitude>-14.379444</longitude>
</airport><airport><iata_code>AJK</iata_code>
<icao_code>OIHR</icao_code>
<name_rus></name_rus>
<name_eng>Araak</name_eng>
<city_rus></city_rus>
<city_eng>Araak</city_eng>
<country_rus>Иран</country_rus>
<country_eng>Iran</country_eng>

<iso_code>IR</iso_code>
<latitude>34.138147</latitude>
<longitude>49.847292</longitude>
</airport><airport><iata_code>AJL</iata_code>
<icao_code>VEAZ</icao_code>
<name_rus>Айзаул</name_rus>
<name_eng>Aizawl</name_eng>
<city_rus>Айзаул</city_rus>
<city_eng>Aizawl</city_eng>

<country_rus>Индия</country_rus>
<country_eng>India</country_eng>
<iso_code>IN</iso_code>
<latitude>23.746603</latitude>
<longitude>92.802767</longitude>
</airport><airport><iata_code>AJN</iata_code>
<icao_code>FMCV</icao_code>
<name_rus></name_rus>
<name_eng>Ouani</name_eng>

<city_rus>Анжуан</city_rus>
<city_eng>Anjouan</city_eng>
<country_rus>Коморские острова</country_rus>
<country_eng>Comoros</country_eng>
<iso_code>KM</iso_code>
<latitude>-12.131667</latitude>
<longitude>44.430279</longitude>
</airport><airport><iata_code>AJO</iata_code>
<icao_code></icao_code>

<name_rus>Альюф</name_rus>
<name_eng>Aljouf</name_eng>
<city_rus>Альюф</city_rus>
<city_eng>Aljouf</city_eng>
<country_rus>Йемен</country_rus>
<country_eng>Yemen</country_eng>
<iso_code>YE</iso_code>
<latitude>15.717</latitude>
<longitude>44.250</longitude>

</airport><airport><iata_code>AJR</iata_code>
<icao_code>ESNX</icao_code>
<name_rus>Арвидсьяур</name_rus>
<name_eng>Arvidsjaur</name_eng>
<city_rus>Арвидсьяур</city_rus>
<city_eng>Arvidsjaur</city_eng>
<country_rus>Швеция</country_rus>
<country_eng>Sweden</country_eng>
<iso_code>SE</iso_code>

<latitude>65.590278</latitude>
<longitude>19.281944</longitude>
</airport><airport><iata_code>AJS</iata_code>
<icao_code></icao_code>
<name_rus>Абреохос</name_rus>
<name_eng>Abreojos</name_eng>
<city_rus>Абреохос</city_rus>
<city_eng>Abreojos</city_eng>
<country_rus>Мексика</country_rus>

<country_eng>Mexico</country_eng>
<iso_code>MX</iso_code>
<latitude>26.727222</latitude>
<longitude>-113.559444</longitude>
</airport><airport><iata_code>AJU</iata_code>
<icao_code>SBAR</icao_code>
<name_rus>Санта Мария</name_rus>
<name_eng>Santa Maria</name_eng>
<city_rus>Аракайю</city_rus>

<city_eng>Aracaju</city_eng>
<country_rus>Бразилия</country_rus>
<country_eng>Brazil</country_eng>
<iso_code>BR</iso_code>
<latitude>-10.984000</latitude>
<longitude>-37.070333</longitude>
</airport><airport><iata_code>AJY</iata_code>
<icao_code>DRZA</icao_code>
<name_rus></name_rus>

<name_eng>Agades</name_eng>
<city_rus></city_rus>
<city_eng>Agades</city_eng>
<country_rus>Нигер</country_rus>
<country_eng>Niger</country_eng>
<iso_code>NE</iso_code>
<latitude>16.965997</latitude>
<longitude>8.000114</longitude>
</airport><airport><iata_code>AKA</iata_code>

<icao_code>ZLAK</icao_code>
<name_rus>Анькан</name_rus>
<name_eng>Ankang</name_eng>
<city_rus>Анькан</city_rus>
<city_eng>Ankang</city_eng>
<country_rus>Китай</country_rus>
<country_eng>China</country_eng>
<iso_code>CN</iso_code>
<latitude>32.708056</latitude>

<longitude>108.931389</longitude>
</airport><airport><iata_code>AKB</iata_code>
<icao_code>PAAK</icao_code>
<name_rus></name_rus>
<name_eng>Atka</name_eng>
<city_rus></city_rus>
<city_eng>Atka</city_eng>
<country_rus>США</country_rus>
<country_eng>United States</country_eng>
<iso_code>US</iso_code>

<latitude>52.220586</latitude>
<longitude>-174.206183</longitude>
</airport><airport><iata_code>AKC</iata_code>
<icao_code>KAKR</icao_code>
<name_rus></name_rus>
<name_eng>Fulton International</name_eng>
<city_rus></city_rus>
<city_eng>Akron/Canton</city_eng>
<country_rus>ЮАР</country_rus>
<country_eng>South Africa</country_eng>

<iso_code>ZA</iso_code>
<latitude>41.037500</latitude>
<longitude>-81.466917</longitude>
</airport><airport><iata_code>AKD</iata_code>
<icao_code>VAAK</icao_code>
<name_rus>Акола</name_rus>
<name_eng>Akola</name_eng>
<city_rus>Акола</city_rus>
<city_eng>Akola</city_eng>

<country_rus>Индия</country_rus>
<country_eng>India</country_eng>
<iso_code>IN</iso_code>
<latitude>20.699006</latitude>
<longitude>77.058628</longitude>
</airport><airport><iata_code>AKE</iata_code>
<icao_code></icao_code>
<name_rus>Акиени</name_rus>
<name_eng>Akieni</name_eng>

<city_rus>Акиени</city_rus>
<city_eng>Akieni</city_eng>
<country_rus>Габон</country_rus>
<country_eng>Gabon</country_eng>
<iso_code>GA</iso_code>
<latitude>-1.129436</latitude>
<longitude>13.920506</longitude>
</airport><airport><iata_code>AKF</iata_code>
<icao_code>HLKF</icao_code>

<name_rus>Куфра</name_rus>
<name_eng>Kufrah</name_eng>
<city_rus>Куфра</city_rus>
<city_eng>Kufrah</city_eng>
<country_rus>Ливия</country_rus>
<country_eng>Libya</country_eng>
<iso_code>LY</iso_code>
<latitude>24.178728</latitude>
<longitude>23.313958</longitude>

</airport><airport><iata_code>AKG</iata_code>
<icao_code></icao_code>
<name_rus>Ангуганак</name_rus>
<name_eng>Anguganak</name_eng>
<city_rus>Ангуганак</city_rus>
<city_eng>Anguganak</city_eng>
<country_rus>Папуа - Новая Гвинея</country_rus>
<country_eng>Papua New Guinea</country_eng>
<iso_code>PG</iso_code>

<latitude>-3.550</latitude>
<longitude>142.217</longitude>
</airport><airport><iata_code>AKH</iata_code>
<icao_code>OEPS</icao_code>
<name_rus></name_rus>
<name_eng>Prince Sultan Air Base</name_eng>
<city_rus></city_rus>
<city_eng>Al Kharj</city_eng>
<country_rus>Саудовская Аравия</country_rus>
<country_eng>Saudi Arabia</country_eng>

<iso_code>SA</iso_code>
<latitude>24.062700</latitude>
<longitude>47.580536</longitude>
</airport><airport><iata_code>AKI</iata_code>
<icao_code>PFAK</icao_code>
<name_rus></name_rus>
<name_eng>Akiak</name_eng>
<city_rus></city_rus>
<city_eng>Akiak</city_eng>
<country_rus>США</country_rus>

<country_eng>United States</country_eng>
<iso_code>US</iso_code>
<latitude>60.902889</latitude>
<longitude>-161.230583</longitude>
</airport><airport><iata_code>AKJ</iata_code>
<icao_code>RJEC</icao_code>
<name_rus>Асахикава</name_rus>
<name_eng>Asahikawa</name_eng>
<city_rus>Асахикава</city_rus>

<city_eng>Asahikawa</city_eng>
<country_rus>Япония</country_rus>
<country_eng>Japan</country_eng>
<iso_code>JP</iso_code>
<latitude>43.670833</latitude>
<longitude>142.447500</longitude>
</airport><airport><iata_code>AKK</iata_code>
<icao_code>PAKH</icao_code>
<name_rus></name_rus>

<name_eng>Akhiok SPB</name_eng>
<city_rus></city_rus>
<city_eng>Akhiok</city_eng>
<country_rus>США</country_rus>
<country_eng>United States</country_eng>
<iso_code>US</iso_code>
<latitude>56.938691</latitude>
<longitude>-154.182556</longitude>
</airport><airport><iata_code>AKL</iata_code>

<icao_code>NZAA</icao_code>
<name_rus></name_rus>
<name_eng>Auckland International</name_eng>
<city_rus>Окленд</city_rus>
<city_eng>Auckland</city_eng>
<country_rus>Новая Зеландия</country_rus>
<country_eng>New Zealand</country_eng>
<iso_code>NZ</iso_code>
<latitude>-37.008056</latitude>

<longitude>174.791667</longitude>
</airport><airport><iata_code>AKM</iata_code>
<icao_code></icao_code>
<name_rus>Закума</name_rus>
<name_eng>Zakouma</name_eng>
<city_rus>Закума</city_rus>
<city_eng>Zakouma</city_eng>
<country_rus>Чад</country_rus>
<country_eng>Chad</country_eng>

<iso_code>TD</iso_code>
<latitude>10.900</latitude>
<longitude>19.817</longitude>
</airport><airport><iata_code>AKN</iata_code>
<icao_code>PAKN</icao_code>
<name_rus></name_rus>
<name_eng>King Salmon</name_eng>
<city_rus></city_rus>
<city_eng>King Salmon</city_eng>
<country_rus>США</country_rus>

<country_eng>United States</country_eng>
<iso_code>US</iso_code>
<latitude>58.676493</latitude>
<longitude>-156.648691</longitude>
</airport><airport><iata_code>AKO</iata_code>
<icao_code>KAKO</icao_code>
<name_rus></name_rus>
<name_eng>Colorado Plains Regional Airport</name_eng>
<city_rus>Akron</city_rus>

<city_eng>Akron, CO</city_eng>
<country_rus>США</country_rus>
<country_eng>United States</country_eng>
<iso_code>US</iso_code>
<latitude>40.175633</latitude>
<longitude>-103.222028</longitude>
</airport><airport><iata_code>AKP</iata_code>
<icao_code>PAKP</icao_code>
<name_rus></name_rus>

<name_eng>Anaktuvuk</name_eng>
<city_rus></city_rus>
<city_eng>Anaktuvuk</city_eng>
<country_rus>США</country_rus>
<country_eng>United States</country_eng>
<iso_code>US</iso_code>
<latitude>68.133597</latitude>
<longitude>-151.743342</longitude>
</airport><airport><iata_code>AKQ</iata_code>

<icao_code>WIAG</icao_code>
<name_rus></name_rus>
<name_eng>Gunung Batin</name_eng>
<city_rus>Астраксетра</city_rus>
<city_eng>Astraksetra</city_eng>
<country_rus>Индонезия</country_rus>
<country_eng>Indonesia</country_eng>
<iso_code>ID</iso_code>
<latitude>-4.612</latitude>

<longitude>105.232</longitude>
</airport><airport><iata_code>AKR</iata_code>
<icao_code>DNAK</icao_code>
<name_rus>Акере</name_rus>
<name_eng>Akure</name_eng>
<city_rus>Акере</city_rus>
<city_eng>Akure</city_eng>
<country_rus>Нигерия</country_rus>
<country_eng>Nigeria</country_eng>

<iso_code>NG</iso_code>
<latitude>7.246739</latitude>
<longitude>5.301008</longitude>
</airport><airport><iata_code>AKT</iata_code>
<icao_code>LCRA</icao_code>
<name_rus></name_rus>
<name_eng>Akrotiri Raf</name_eng>
<city_rus>Акротири</city_rus>
<city_eng>Akrotiri</city_eng>

<country_rus>Кипр</country_rus>
<country_eng>Cyprus</country_eng>
<iso_code>CY</iso_code>
<latitude>34.590416</latitude>
<longitude>32.987861</longitude>
</airport><airport><iata_code>AKU</iata_code>
<icao_code>ZWAK</icao_code>
<name_rus>Аксу</name_rus>
<name_eng>Aksu</name_eng>

<city_rus>Аксу</city_rus>
<city_eng>Aksu</city_eng>
<country_rus>Китай</country_rus>
<country_eng>China</country_eng>
<iso_code>CN</iso_code>
<latitude>41.262500</latitude>
<longitude>80.291667</longitude>
</airport><airport><iata_code>AKV</iata_code>
<icao_code>CYKO</icao_code>

<name_rus></name_rus>
<name_eng>Akulivik</name_eng>
<city_rus></city_rus>
<city_eng>Akulivik</city_eng>
<country_rus>Канада</country_rus>
<country_eng>Canada</country_eng>
<iso_code>CA</iso_code>
<latitude>60.818611</latitude>
<longitude>-78.148611</longitude>
</airport><airport><iata_code>AKW</iata_code>

<icao_code>OIAG</icao_code>
<name_rus></name_rus>
<name_eng>Aghajari</name_eng>
<city_rus></city_rus>
<city_eng>Aghajari</city_eng>
<country_rus>Иран</country_rus>
<country_eng>Iran</country_eng>
<iso_code>IR</iso_code>
<latitude>30.744450</latitude>
<longitude>49.677183</longitude>

</airport><airport><iata_code>AKX</iata_code>
<icao_code>UATT</icao_code>
<name_rus>Актюбинск</name_rus>
<name_eng>Aktyubinsk</name_eng>
<city_rus>Актюбинск</city_rus>
<city_eng>Aktyubinsk</city_eng>
<country_rus>Казахстан</country_rus>
<country_eng>Kazakhstan</country_eng>
<iso_code>KZ</iso_code>

<latitude>50.245833</latitude>
<longitude>57.206667</longitude>
</airport><airport><iata_code>AKY</iata_code>
<icao_code>VYSW</icao_code>
<name_rus></name_rus>
<name_eng>Civil</name_eng>
<city_rus></city_rus>
<city_eng>Sittwe</city_eng>
<country_rus>Мьянма</country_rus>
<country_eng>Myanmar</country_eng>

<iso_code>MM</iso_code>
<latitude>20.132708</latitude>
<longitude>92.872628</longitude>
</airport><airport><iata_code>ALA</iata_code>
<icao_code>UAAA</icao_code>
<name_rus>Алматы</name_rus>
<name_eng>Almaty</name_eng>
<city_rus>Алматы</city_rus>
<city_eng>Almaty</city_eng>

<country_rus>Казахстан</country_rus>
<country_eng>Kazakhstan</country_eng>
<iso_code>KZ</iso_code>
<latitude>43.352072</latitude>
<longitude>77.040508</longitude>
</airport><airport><iata_code>ALB</iata_code>
<icao_code>KALB</icao_code>
<name_rus>Олбани международный</name_rus>
<name_eng>Albany International</name_eng>

<city_rus>Олбани</city_rus>
<city_eng>Albany</city_eng>
<country_rus>США</country_rus>
<country_eng>United States</country_eng>
<iso_code>US</iso_code>
<latitude>42.749111</latitude>
<longitude>-73.801972</longitude>
</airport><airport><iata_code>ALC</iata_code>
<icao_code>LEAL</icao_code>

<name_rus></name_rus>
<name_eng>Alicante El Altet</name_eng>
<city_rus>Аликанте</city_rus>
<city_eng>Alicante</city_eng>
<country_rus>Испания</country_rus>
<country_eng>Spain</country_eng>
<iso_code>ES</iso_code>
<latitude>38.282169</latitude>
<longitude>-0.558156</longitude>

</airport><airport><iata_code>ALD</iata_code>
<icao_code>SPAR</icao_code>
<name_rus>Алерта</name_rus>
<name_eng>Alerta</name_eng>
<city_rus>Алерта</city_rus>
<city_eng>Alerta</city_eng>
<country_rus>Перу</country_rus>
<country_eng>Peru</country_eng>
<iso_code>PE</iso_code>

<latitude>-11.683</latitude>
<longitude>-69.333</longitude>
</airport><airport><iata_code>ALE</iata_code>
<icao_code></icao_code>
<name_rus></name_rus>
<name_eng>Alpine</name_eng>
<city_rus></city_rus>
<city_eng>Alpine</city_eng>
<country_rus>США</country_rus>
<country_eng>United States</country_eng>

<iso_code>US</iso_code>
<latitude>30.384222</latitude>
<longitude>-103.683583</longitude>
</airport><airport><iata_code>ALF</iata_code>
<icao_code>ENAT</icao_code>
<name_rus>Альта</name_rus>
<name_eng>Alta</name_eng>
<city_rus>Алта</city_rus>
<city_eng>Alta</city_eng>

<country_rus>Норвегия</country_rus>
<country_eng>Norway</country_eng>
<iso_code>NO</iso_code>
<latitude>69.976111</latitude>
<longitude>23.371667</longitude>
</airport><airport><iata_code>ALG</iata_code>
<icao_code>DAAG</icao_code>
<name_rus></name_rus>
<name_eng>Houari Boumediene</name_eng>

<city_rus></city_rus>
<city_eng>Algiers</city_eng>
<country_rus>Алжир</country_rus>
<country_eng>Algeria</country_eng>
<iso_code>DZ</iso_code>
<latitude>36.694444</latitude>
<longitude>3.216944</longitude>
</airport><airport><iata_code>ALH</iata_code>
<icao_code>YABA</icao_code>

<name_rus>Олбани</name_rus>
<name_eng>Albany</name_eng>
<city_rus>Олбани</city_rus>
<city_eng>Albany</city_eng>
<country_rus>Австралия</country_rus>
<country_eng>Australia</country_eng>
<iso_code>AU</iso_code>
<latitude>-34.943333</latitude>
<longitude>117.808889</longitude>

</airport><airport><iata_code>ALI</iata_code>
<icao_code>KALI</icao_code>
<name_rus></name_rus>
<name_eng>International</name_eng>
<city_rus></city_rus>
<city_eng>Alice</city_eng>
<country_rus>США</country_rus>
<country_eng>United States</country_eng>
<iso_code>US</iso_code>
<latitude>27.740889</latitude>

<longitude>-98.026944</longitude>
</airport><airport><iata_code>ALJ</iata_code>
<icao_code>FAAB</icao_code>
<name_rus>Кортдум</name_rus>
<name_eng>Kortdoorn</name_eng>
<city_rus>Александер-Бей</city_rus>
<city_eng>Alexander Bay</city_eng>
<country_rus>ЮАР</country_rus>
<country_eng>South Africa</country_eng>

<iso_code>ZA</iso_code>
<latitude>-28.575001</latitude>
<longitude>16.533332</longitude>
</airport><airport><iata_code>ALK</iata_code>
<icao_code></icao_code>
<name_rus>Асела</name_rus>
<name_eng>Asela</name_eng>
<city_rus>Асела</city_rus>
<city_eng>Asela</city_eng>

<country_rus>Эфиопия</country_rus>
<country_eng>Ethiopia</country_eng>
<iso_code>ET</iso_code>
<latitude>7.967</latitude>
<longitude>39.117</longitude>
</airport><airport><iata_code>ALL</iata_code>
<icao_code>LIMG</icao_code>
<name_rus>Албенга</name_rus>
<name_eng>Albenga</name_eng>

<city_rus>Албенга</city_rus>
<city_eng>Albenga</city_eng>
<country_rus>Италия</country_rus>
<country_eng>Italy</country_eng>
<iso_code>IT</iso_code>
<latitude>44.050608</latitude>
<longitude>8.127428</longitude>
</airport><airport><iata_code>ALM</iata_code>
<icao_code>KALM</icao_code>

<name_rus></name_rus>
<name_eng>Municipal</name_eng>
<city_rus>Аламогордо</city_rus>
<city_eng>Alamogordo</city_eng>
<country_rus>США</country_rus>
<country_eng>United States</country_eng>
<iso_code>US</iso_code>
<latitude>32.839944</latitude>
<longitude>-105.990583</longitude>

</airport><airport><iata_code>ALN</iata_code>
<icao_code>KALN</icao_code>
<name_rus>Альтон</name_rus>
<name_eng>Alton</name_eng>
<city_rus></city_rus>
<city_eng>Alton</city_eng>
<country_rus>США</country_rus>
<country_eng>United States</country_eng>
<iso_code>US</iso_code>

<latitude>38.889917</latitude>
<longitude>-90.045989</longitude>
</airport><airport><iata_code>ALO</iata_code>
<icao_code>KALO</icao_code>
<name_rus>Ватерло</name_rus>
<name_eng>Waterloo</name_eng>
<city_rus>Ватерло</city_rus>
<city_eng>Waterloo</city_eng>
<country_rus>США</country_rus>

<country_eng>United States</country_eng>
<iso_code>US</iso_code>
<latitude>42.557081</latitude>
<longitude>-92.400344</longitude>
</airport><airport><iata_code>ALP</iata_code>
<icao_code>OSAP</icao_code>
<name_rus></name_rus>
<name_eng>Nejrab</name_eng>
<city_rus>Алеппо</city_rus>

<city_eng>Aleppo</city_eng>
<country_rus>Сирия</country_rus>
<country_eng>Syria</country_eng>
<iso_code>SY</iso_code>
<latitude>36.180675</latitude>
<longitude>37.224358</longitude>
</airport><airport><iata_code>ALQ</iata_code>
<icao_code>SSAL</icao_code>
<name_rus></name_rus>

<name_eng>Federal</name_eng>
<city_rus></city_rus>
<city_eng>Alegrete</city_eng>
<country_rus>Бразилия</country_rus>
<country_eng>Brazil</country_eng>
<iso_code>BR</iso_code>
<latitude>-29.800274</latitude>
<longitude>-55.763054</longitude>
</airport><airport><iata_code>ALR</iata_code>

<icao_code>NZLX</icao_code>
<name_rus>Александра</name_rus>
<name_eng>Alexandra</name_eng>
<city_rus>Александра</city_rus>
<city_eng>Alexandra</city_eng>
<country_rus>Новая Зеландия</country_rus>
<country_eng>New Zealand</country_eng>
<iso_code>NZ</iso_code>
<latitude>-45.211667</latitude>

<longitude>169.373333</longitude>
</airport><airport><iata_code>ALS</iata_code>
<icao_code>KALS</icao_code>
<name_rus></name_rus>
<name_eng>Municipal</name_eng>
<city_rus>Аламоса</city_rus>
<city_eng>Alamosa</city_eng>
<country_rus>США</country_rus>
<country_eng>United States</country_eng>

<iso_code>US</iso_code>
<latitude>37.434917</latitude>
<longitude>-105.866556</longitude>
</airport><airport><iata_code>ALT</iata_code>
<icao_code></icao_code>
<name_rus></name_rus>
<name_eng>Alenquer</name_eng>
<city_rus></city_rus>
<city_eng>Alenquer</city_eng>
<country_rus>Бразилия</country_rus>

<country_eng>Brazil</country_eng>
<iso_code>BR</iso_code>
<latitude>-1.917499</latitude>
<longitude>-54.721111</longitude>
</airport><airport><iata_code>ALU</iata_code>
<icao_code>HCMA</icao_code>
<name_rus>Алула</name_rus>
<name_eng>Alula</name_eng>
<city_rus>Алула</city_rus>

<city_eng>Alula</city_eng>
<country_rus>Сомали</country_rus>
<country_eng>Somalia</country_eng>
<iso_code>SO</iso_code>
<latitude>11.950</latitude>
<longitude>50.733</longitude>
</airport><airport><iata_code>ALV</iata_code>
<icao_code></icao_code>
<name_rus></name_rus>
<name_eng>Andorra La Vella H/P</name_eng>

<city_rus>Андорра-ла-Велла</city_rus>
<city_eng>Andorra La Vella</city_eng>
<country_rus>Андорра</country_rus>
<country_eng>Andorra</country_eng>
<iso_code>AD</iso_code>
<latitude>42.506</latitude>
<longitude>1.522</longitude>
</airport><airport><iata_code>ALW</iata_code>
<icao_code>KALW</icao_code>

<name_rus></name_rus>
<name_eng>Walla Walla</name_eng>
<city_rus></city_rus>
<city_eng>Walla Walla</city_eng>
<country_rus>США</country_rus>
<country_eng>United States</country_eng>
<iso_code>US</iso_code>
<latitude>46.094778</latitude>
<longitude>-118.289000</longitude>
</airport><airport><iata_code>ALX</iata_code>

<icao_code>KALX</icao_code>
<name_rus></name_rus>
<name_eng>Thomas C Russell Fld</name_eng>
<city_rus></city_rus>
<city_eng>Alexander City</city_eng>
<country_rus>США</country_rus>
<country_eng>United States</country_eng>
<iso_code>US</iso_code>
<latitude>32.914744</latitude>
<longitude>-85.962956</longitude>

</airport><airport><iata_code>ALY</iata_code>
<icao_code>HEAX</icao_code>
<name_rus></name_rus>
<name_eng>El Nohza</name_eng>
<city_rus>Александрия</city_rus>
<city_eng>Alexandria</city_eng>
<country_rus>Египет</country_rus>
<country_eng>Egypt</country_eng>
<iso_code>EG</iso_code>

<latitude>31.183903</latitude>
<longitude>29.948889</longitude>
</airport><airport><iata_code>ALZ</iata_code>
<icao_code>KALZ</icao_code>
<name_rus></name_rus>
<name_eng>Alitak SPB</name_eng>
<city_rus></city_rus>
<city_eng>Alitak</city_eng>
<country_rus>США</country_rus>
<country_eng>United States</country_eng>

<iso_code>US</iso_code>
<latitude>56.899487</latitude>
<longitude>-154.247847</longitude>
</airport><airport><iata_code>AMA</iata_code>
<icao_code>KAMA</icao_code>
<name_rus></name_rus>
<name_eng>Rick Husband Amarillo International</name_eng>
<city_rus></city_rus>
<city_eng>Amarillo, TX</city_eng>
<country_rus>США</country_rus>

<country_eng>United States</country_eng>
<iso_code>US</iso_code>
<latitude>35.219361</latitude>
<longitude>-101.705917</longitude>
</airport><airport><iata_code>AMB</iata_code>
<icao_code>FMNE</icao_code>
<name_rus>Амбилобе</name_rus>
<name_eng>Ambilobe</name_eng>
<city_rus>Амбилобе</city_rus>

<city_eng>Ambilobe</city_eng>
<country_rus>Мадагаскар</country_rus>
<country_eng>Madagascar</country_eng>
<iso_code>MG</iso_code>
<latitude>-13.188431</latitude>
<longitude>48.987978</longitude>
</airport><airport><iata_code>AMC</iata_code>
<icao_code>FTTN</icao_code>
<name_rus></name_rus>

<name_eng>Am Timan</name_eng>
<city_rus></city_rus>
<city_eng>Am Timan</city_eng>
<country_rus>Чад</country_rus>
<country_eng>Chad</country_eng>
<iso_code>TD</iso_code>
<latitude>11.034</latitude>
<longitude>20.274</longitude>
</airport><airport><iata_code>AMD</iata_code>

<icao_code>VAAH</icao_code>
<name_rus>Ахмедабад</name_rus>
<name_eng>Ahmedabad</name_eng>
<city_rus>Ахмедабад</city_rus>
<city_eng>Ahmedabad</city_eng>
<country_rus>Индия</country_rus>
<country_eng>India</country_eng>
<iso_code>IN</iso_code>
<latitude>23.077242</latitude>

<longitude>72.634650</longitude>
</airport><airport><iata_code>AME</iata_code>
<icao_code></icao_code>
<name_rus>Альто-Молокуэ</name_rus>
<name_eng>Alto Molocue</name_eng>
<city_rus>Альто-Молокуэ</city_rus>
<city_eng>Alto Molocue</city_eng>
<country_rus>Мозамбик</country_rus>
<country_eng>Mozambique</country_eng>

<iso_code>MZ</iso_code>
<latitude>-15.633</latitude>
<longitude>37.700</longitude>
</airport><airport><iata_code>AMF</iata_code>
<icao_code></icao_code>
<name_rus>Ама</name_rus>
<name_eng>Ama</name_eng>
<city_rus>Ама</city_rus>
<city_eng>Ama</city_eng>

<country_rus>Папуа - Новая Гвинея</country_rus>
<country_eng>Papua New Guinea</country_eng>
<iso_code>PG</iso_code>
<latitude>-4.100</latitude>
<longitude>141.667</longitude>
</airport><airport><iata_code>AMG</iata_code>
<icao_code></icao_code>
<name_rus></name_rus>
<name_eng>Amboin</name_eng>
<city_rus></city_rus>

<city_eng>Amboin</city_eng>
<country_rus>Папуа - Новая Гвинея</country_rus>
<country_eng>Papua New Guinea</country_eng>
<iso_code>PG</iso_code>
<latitude>-4.600</latitude>
<longitude>143.500</longitude>
</airport><airport><iata_code>AMH</iata_code>
<icao_code>HAAM</icao_code>
<name_rus>Арба-Минч</name_rus>

<name_eng>Arba Mintch</name_eng>
<city_rus>Арба-Минч</city_rus>
<city_eng>Arba Mintch</city_eng>
<country_rus>Эфиопия</country_rus>
<country_eng>Ethiopia</country_eng>
<iso_code>ET</iso_code>
<latitude>6.039389</latitude>
<longitude>37.590453</longitude>
</airport><airport><iata_code>AMI</iata_code>

<icao_code>WADA</icao_code>
<name_rus></name_rus>
<name_eng>Selaparang</name_eng>
<city_rus></city_rus>
<city_eng>Mataram</city_eng>
<country_rus>Индонезия</country_rus>
<country_eng>Indonesia</country_eng>
<iso_code>ID</iso_code>
<latitude>-8.560708</latitude>
<longitude>116.094656</longitude>

</airport><airport><iata_code>AMJ</iata_code>
<icao_code>SNAR</icao_code>
<name_rus>Альменара</name_rus>
<name_eng>Almenara</name_eng>
<city_rus></city_rus>
<city_eng>Almenara</city_eng>
<country_rus>Бразилия</country_rus>
<country_eng>Brazil</country_eng>
<iso_code>BR</iso_code>

<latitude>-16.165963</latitude>
<longitude>-40.684436</longitude>
</airport><airport><iata_code>AMK</iata_code>
<icao_code></icao_code>
<name_rus></name_rus>
<name_eng>Animas Airpark</name_eng>
<city_rus>Дуранго</city_rus>
<city_eng>Durango</city_eng>
<country_rus>США</country_rus>
<country_eng>United States</country_eng>

<iso_code>US</iso_code>
<latitude>37.203178</latitude>
<longitude>-107.869195</longitude>
</airport><airport><iata_code>AML</iata_code>
<icao_code></icao_code>
<name_rus></name_rus>
<name_eng>Puerto Armuellas</name_eng>
<city_rus></city_rus>
<city_eng>Puerto Armuellas</city_eng>
<country_rus>Панама</country_rus>

<country_eng>Panama</country_eng>
<iso_code>PA</iso_code>
<latitude>8.268056</latitude>
<longitude>-82.864944</longitude>
</airport><airport><iata_code>AMM</iata_code>
<icao_code>OJAI</icao_code>
<name_rus></name_rus>
<name_eng>Queen Alia Intl</name_eng>
<city_rus>Амман</city_rus>

<city_eng>Amman</city_eng>
<country_rus>Иордания</country_rus>
<country_eng>Jordan</country_eng>
<iso_code>JO</iso_code>
<latitude>31.722556</latitude>
<longitude>35.993214</longitude>
</airport><airport><iata_code>AMN</iata_code>
<icao_code>KAMN</icao_code>
<name_rus></name_rus>

<name_eng>Gratiot Community</name_eng>
<city_rus></city_rus>
<city_eng>Alma</city_eng>
<country_rus>США</country_rus>
<country_eng>United States</country_eng>
<iso_code>US</iso_code>
<latitude>43.322139</latitude>
<longitude>-84.687944</longitude>
</airport><airport><iata_code>AMO</iata_code>

<icao_code>FTTU</icao_code>
<name_rus>Мао</name_rus>
<name_eng>Mao</name_eng>
<city_rus>Мао</city_rus>
<city_eng>Mao</city_eng>
<country_rus>Чад</country_rus>
<country_eng>Chad</country_eng>
<iso_code>TD</iso_code>
<latitude>14.145556</latitude>

<longitude>15.314444</longitude>
</airport><airport><iata_code>AMP</iata_code>
<icao_code>FMSY</icao_code>
<name_rus>Ампанихи</name_rus>
<name_eng>Ampanihy</name_eng>
<city_rus>Ампанихи</city_rus>
<city_eng>Ampanihy</city_eng>
<country_rus>Мадагаскар</country_rus>
<country_eng>Madagascar</country_eng>

<iso_code>MG</iso_code>
<latitude>-24.699722</latitude>
<longitude>44.734167</longitude>
</airport><airport><iata_code>AMQ</iata_code>
<icao_code>WAPP</icao_code>
<name_rus></name_rus>
<name_eng>Pattimura</name_eng>
<city_rus>Амбон</city_rus>
<city_eng>Ambon</city_eng>

<country_rus>Индонезия</country_rus>
<country_eng>Indonesia</country_eng>
<iso_code>ID</iso_code>
<latitude>-3.710264</latitude>
<longitude>128.089136</longitude>
</airport><airport><iata_code>AMR</iata_code>
<icao_code></icao_code>
<name_rus>Арно</name_rus>
<name_eng>Arno</name_eng>

<city_rus>Арно</city_rus>
<city_eng>Arno</city_eng>
<country_rus>Маршалловы острова</country_rus>
<country_eng>Marshall Islands</country_eng>
<iso_code>MH</iso_code>
<latitude>7.083</latitude>
<longitude>171.683</longitude>
</airport><airport><iata_code>AMS</iata_code>
<icao_code>EHAM</icao_code>

<name_rus></name_rus>
<name_eng>Amsterdam-Schiphol</name_eng>
<city_rus>Амстердам</city_rus>
<city_eng>Amsterdam</city_eng>
<country_rus>Нидерланды</country_rus>
<country_eng>Netherlands</country_eng>
<iso_code>NL</iso_code>
<latitude>52.308613</latitude>
<longitude>4.763889</longitude>

</airport><airport><iata_code>AMT</iata_code>
<icao_code>YAMT</icao_code>
<name_rus>Амата</name_rus>
<name_eng>Amata</name_eng>
<city_rus></city_rus>
<city_eng>Amata</city_eng>
<country_rus>Австралия</country_rus>
<country_eng>Australia</country_eng>
<iso_code>AU</iso_code>

<latitude>-26.102778</latitude>
<longitude>131.206667</longitude>
</airport><airport><iata_code>AMU</iata_code>
<icao_code></icao_code>
<name_rus>Аманаб</name_rus>
<name_eng>Amanab</name_eng>
<city_rus>Аманаб</city_rus>
<city_eng>Amanab</city_eng>
<country_rus>Папуа - Новая Гвинея</country_rus>

<country_eng>Papua New Guinea</country_eng>
<iso_code>PG</iso_code>
<latitude>-3.583</latitude>
<longitude>141.200</longitude>
</airport><airport><iata_code>AMV</iata_code>
<icao_code>ULDD</icao_code>
<name_rus>Амдерма</name_rus>
<name_eng>Amderma</name_eng>
<city_rus>Амдерма</city_rus>

<city_eng>Amderma</city_eng>
<country_rus>Россия</country_rus>
<country_eng>Russian Federation</country_eng>
<iso_code>RU</iso_code>
<latitude>69.763333</latitude>
<longitude>61.556389</longitude>
</airport><airport><iata_code>AMW</iata_code>
<icao_code>KAMW</icao_code>
<name_rus>Амес</name_rus>

<name_eng>Ames</name_eng>
<city_rus></city_rus>
<city_eng>Ames</city_eng>
<country_rus>США</country_rus>
<country_eng>United States</country_eng>
<iso_code>US</iso_code>
<latitude>41.992056</latitude>
<longitude>-93.621833</longitude>
</airport><airport><iata_code>AMX</iata_code>

<icao_code>YAMM</icao_code>
<name_rus></name_rus>
<name_eng>Ammaroo</name_eng>
<city_rus></city_rus>
<city_eng>Ammaroo</city_eng>
<country_rus>Австралия</country_rus>
<country_eng>Australia</country_eng>
<iso_code>AU</iso_code>
<latitude>-21.739167</latitude>
<longitude>135.243056</longitude>

</airport><airport><iata_code>AMY</iata_code>
<icao_code></icao_code>
<name_rus>Амбатомаинти</name_rus>
<name_eng>Ambatomainty</name_eng>
<city_rus>Амбатомаинти</city_rus>
<city_eng>Ambatomainty</city_eng>
<country_rus>Мадагаскар</country_rus>
<country_eng>Madagascar</country_eng>
<iso_code>MG</iso_code>

<latitude>-17.683</latitude>
<longitude>45.617</longitude>
</airport><airport><iata_code>AMZ</iata_code>
<icao_code>NZAR</icao_code>
<name_rus>Ардмор</name_rus>
<name_eng>Ardmore</name_eng>
<city_rus>Ардмор</city_rus>
<city_eng>Ardmore</city_eng>
<country_rus>Новая Зеландия</country_rus>

<country_eng>New Zealand</country_eng>
<iso_code>NZ</iso_code>
<latitude>-37.029722</latitude>
<longitude>174.973333</longitude>
</airport><airport><iata_code>ANA</iata_code>
<icao_code>KANA</icao_code>
<name_rus></name_rus>
<name_eng>Orange County Steel Salvage Heliport</name_eng>
<city_rus>Анахайм</city_rus>

<city_eng>Anaheim</city_eng>
<country_rus>США</country_rus>
<country_eng>United States</country_eng>
<iso_code>US</iso_code>
<latitude>33.812500</latitude>
<longitude>-117.918889</longitude>
</airport><airport><iata_code>ANB</iata_code>
<icao_code>KANB</icao_code>
<name_rus></name_rus>

<name_eng>Anniston Metropolitan</name_eng>
<city_rus></city_rus>
<city_eng>Anniston</city_eng>
<country_rus>США</country_rus>
<country_eng>United States</country_eng>
<iso_code>US</iso_code>
<latitude>33.588167</latitude>
<longitude>-85.858111</longitude>
</airport><airport><iata_code>ANC</iata_code>

<icao_code>PANC</icao_code>
<name_rus></name_rus>
<name_eng>Ted Stevens Anchorage International Airport</name_eng>
<city_rus>Анкораж</city_rus>
<city_eng>Anchorage</city_eng>
<country_rus>США</country_rus>
<country_eng>United States</country_eng>
<iso_code>US</iso_code>
<latitude>61.174361</latitude>

<longitude>-149.996361</longitude>
</airport><airport><iata_code>AND</iata_code>
<icao_code>KAND</icao_code>
<name_rus>Андерсон</name_rus>
<name_eng>Anderson</name_eng>
<city_rus></city_rus>
<city_eng>Anderson</city_eng>
<country_rus>США</country_rus>
<country_eng>United States</country_eng>

<iso_code>US</iso_code>
<latitude>34.494583</latitude>
<longitude>-82.709389</longitude>
</airport><airport><iata_code>ANE</iata_code>
<icao_code>LFJR</icao_code>
<name_rus></name_rus>
<name_eng>Marce</name_eng>
<city_rus>Анжер</city_rus>
<city_eng>Angers</city_eng>

<country_rus>Франция</country_rus>
<country_eng>France</country_eng>
<iso_code>FR</iso_code>
<latitude>47.560211</latitude>
<longitude>-0.312128</longitude>
</airport><airport><iata_code>ANF</iata_code>
<icao_code>SCFA</icao_code>
<name_rus></name_rus>
<name_eng>Cerro Moreno</name_eng>

<city_rus>Антофагаста</city_rus>
<city_eng>Antofagasta</city_eng>
<country_rus>Чили</country_rus>
<country_eng>Chile</country_eng>
<iso_code>CL</iso_code>
<latitude>-23.444478</latitude>
<longitude>-70.445100</longitude>
